"CouncilSiteID","SiteID","LawaSiteID","NZReach","Region","Agency","SWQAltitude","SWQLanduse","Catchment","Lat","Long","accessDate","Landcover","Altitude","Order","StreamOrder"
"1043824","ngakaroa @ mills road","arc-00009",2009507,"auckland","ac","","","ngakaroa stream",-37.1954715941643,174.973634380558,"24-Jul-2020","P",165,"3","3"
"7527","vaughan lower","arc-00024",2004122,"auckland","ac","","","vaughans stream",-36.6843809245859,174.739454858364,"24-Jul-2020","P",33.5,"2","1&2"
"45505","makarau @ rail bridge","arc-00033",2002945,"auckland","ac","lowland","rural","makarau river",-36.5566003309383,174.520676593504,"24-Jul-2020","P",31,"5","4"
"8019","avondale @ shadbolt","arc-00036",2006297,"auckland","ac","lowland","urban","avondale",-36.9232796028548,174.69177897747,"24-Jul-2020","U",34,"2","3"
"7171","nukumea upper","arc-00038",2003052,"auckland","ac","upland","reference","nukumea",-36.5711630781172,174.66982770771,"24-Jul-2020","S",84.25,"1","1&2"
"44618","cascades ltb","arc-00001",2005866,"auckland","ac","","","cascade stream",-36.8888897276789,174.522114739379,"24-Jul-2020","IF",64,"2","4"
"45369","kumeu @ weza","arc-00003",2004945,"auckland","ac","","","kumeu river",-36.7761949059392,174.560030905611,"24-Jul-2020","P",37.75,"4","4&1"
"6604","matakana ltb","arc-00008",2001381,"auckland","ac","","","matakana river",-36.3450174080717,174.711828900139,"24-Jul-2020","P",39,"4","1"
"8177","oakley ltb","arc-00010",2005765,"auckland","ac","","","oakley creek",-36.8761606721293,174.704774371726,"24-Jul-2020","U",30,"3","3"
"7308","awanohi lower","arc-00011",2004093,"auckland","ac","","","okura creek",-36.6851870078904,174.69481873097,"24-Jul-2020","P",48,"3","2"
"7925","opanuku stream","arc-00013",2005960,"auckland","ac","","","opanuku stream",-36.894914600398,174.594663650363,"24-Jul-2020","IF",44,"4","3"
"8241","otara ck kennel hill","arc-00016",2006642,"auckland","ac","","","otara creek",-36.9557021247356,174.890620893947,"24-Jul-2020","P",19,"3","3"
"107801","oteha ltb","arc-00017",2004609,"auckland","ac","","","lucas creek",-36.7376890890641,174.701336946892,"24-Jul-2020","U",67.5,"3","3"
"1043825","papakura ltb","arc-00021",2007536,"auckland","ac","","","papakura stream",-37.0281570217399,174.92321720323,"24-Jul-2020","P",17,"4","4"
"1043826","puhinui ltb","arc-00022",2007136,"auckland","ac","","","puhinui stream",-36.9927328887592,174.870402093616,"24-Jul-2020","U",20,"3","3"
"8553","wairoa ltb","arc-00025",2007413,"auckland","ac","","","wairoa river",-37.0119701605855,175.053337256477,"24-Jul-2020","P",27,"5","5"
"7213","west hoe ltb","arc-00027",2003137,"auckland","ac","","","west hoe stream",-36.5784732643224,174.657568393706,"24-Jul-2020","S",84,"1","2"
"43601","waitangi stream","arc-00028",2009665,"auckland","ac","","","waitangi stream",-37.2270234530618,174.739817460997,"24-Jul-2020","P",23.25,"3","3&1"
"8569","wairoa @ caitchen rd trib","arc-00030",2008323,"auckland","ac","","","wairoa river",-37.0924583719574,175.101432631445,"24-Jul-2020","IF",221,"2","2"
"45371","riverhead forest stream","arc-00031",2004547,"auckland","ac","","","kumeu river",-36.7368760528028,174.535816947487,"24-Jul-2020","EF",104,"2","1&2"
"1043835","papakura trib @ alfriston","arc-00037",2007478,"auckland","ac","","","papakura stream",-37.0197040394099,174.92814078863,"24-Jul-2020","P",30,"2","2"
"45368","ararimu @ old north road","arc-00042",2004627,"auckland","ac","","","kumeu river",-36.7434837330767,174.511139902912,"24-Jul-2020","P",19,"5","5"
"8557","aroaro @ phillips","arc-00104",2007239,"auckland","ac","","","wairoa river",-36.9957299143454,175.13399247532,"24-Jul-2020","P",78,"3","3"
"7309","awanohi mid","arc-00106",2004217,"auckland","ac","","","okura creek",-36.6943612861439,174.686054594388,"24-Jul-2020","P",72.5,"2","2&1"
"7311","awanohi upper 1","arc-00108",2004276,"auckland","ac","","","okura creek",-36.7023193313268,174.680396321662,"24-Jul-2020","S",91,"1","1"
"45742","awarere @ dibble","arc-00110",2001550,"auckland","ac","","","hoteo river",-36.370029122108,174.567563831022,"24-Jul-2020","EF",170,"3","3"
"7524","campbell's bay","arc-00111",2004710,"auckland","ac","","","campbell's bay",-36.7507466030539,174.759198694159,"24-Jul-2020","U",28,"1","1"
"7721","chatswood","arc-00112",2005346,"auckland","ac","","","chatswood",-36.8172803249653,174.713826067478,"24-Jul-2020","U",57,"1","1&2"
"6606","duck creek @ trotters","arc-00113",2001750,"auckland","ac","","","duck creek",-36.3989851419417,174.701750174899,"24-Jul-2020","P",61,"1","1"
"8407","duders","arc-00114",2006201,"auckland","ac","","","duders stream",-36.9062529391449,175.083136483349,"24-Jul-2020","P",48,"1","1"
"6852","dyers creek @ mid paddock","arc-00115",2002156,"auckland","ac","","","dyers creek north",-36.4587731923276,174.684141547227,"24-Jul-2020","P",81,"3","3"
"7722","eskdale lower","arc-00116",2005118,"auckland","ac","","","kaipatiki creek",-36.7926034027674,174.708658714026,"24-Jul-2020","U",103,"3","1"
"7723","eskdale mid","arc-00117",2005153,"auckland","ac","","","kaipatiki creek",-36.7947720168767,174.712046727914,"24-Jul-2020","U",45,"2","2"
"7724","eskdale upper","arc-00118",2005160,"auckland","ac","","","kaipatiki creek",-36.7950916000955,174.714889349992,"24-Jul-2020","U",66,"1","1"
"45743","hoteo @ kraak hill","arc-00119",2001513,"auckland","ac","","","hoteo river",-36.3658182333765,174.596915441758,"24-Jul-2020","EF",203,"1","1"
"7725","lignite","arc-00123",2004938,"auckland","ac","","","lignite creek",-36.7701701829781,174.70665933607,"24-Jul-2020","U",61,"1","1"
"7899","lucas ltb @ tennis","arc-00124",2004501,"auckland","ac","","","lucas creek",-36.7231426890407,174.699325197129,"24-Jul-2020","U",84,"3","3"
"6862","mahu reference @ trappit","arc-00125",2002043,"auckland","ac","","","mahurangi river",-36.4453355972646,174.662105928538,"24-Jul-2020","IF",159,"1","1"
"6850","mahurangi ltb","arc-00126",2002078,"auckland","ac","","","mahurangi river",-36.4499486809684,174.647308788846,"24-Jul-2020","EF",95.6666666666667,"2","1&2"
"44460","marawhara","arc-00128",2006366,"auckland","ac","","","marawhara stream",-36.9401216576628,174.46857112482,"24-Jul-2020","IF",188.666666666667,"2","1&2"
"43720","mauku stream @ stp","arc-00129",2009477,"auckland","ac","","","mauku stream",-37.1882561944042,174.804435466703,"24-Jul-2020","P",29.3333333333333,"3","4&1"
"7407","motutapu","arc-00131",2004929,"auckland","ac","","","motutapu island",-36.7687672968808,174.925455569243,"24-Jul-2020","P",55,"2","2"
"45605","mt auckland","arc-00132",2002096,"auckland","ac","","","omaumau river",-36.4576840422337,174.460291306415,"24-Jul-2020","IF",130,"1","1&2"
"7313","okura creek@awanohi road","arc-00133",2003966,"auckland","ac","","","okura creek",-36.6696044220034,174.714807838948,"24-Jul-2020","IF",77,"1","2&1"
"7315","okura trib 2","arc-00134",2004074,"auckland","ac","","","okura creek",-36.6842760278705,174.708732085917,"24-Jul-2020","P",31,"2","2&1"
"7314","okura trib 1","arc-00135",2004039,"auckland","ac","","","okura creek",-36.6821415106051,174.724240500296,"24-Jul-2020","P",52,"1","1"
"7726","onepoto @ kauri glen park","arc-00136",2005265,"auckland","ac","","","oneopoto stream",-36.805227264153,174.736322836525,"24-Jul-2020","U",61,"1","1"
"8609","orere b","arc-00138",2007114,"auckland","ac","","","orere river",-36.9924392470383,175.212774524875,"24-Jul-2020","EF",201,"2","2"
"7172","otanerua","arc-00139",2003019,"auckland","ac","","","otanerua stream",-36.5637353885856,174.67433854996,"24-Jul-2020","S",60,"1","1"
"1043827","puhinui trib (soft)","arc-00140",2007176,"auckland","ac","","","puhinui stream",-37.0017324830907,174.91196547795,"24-Jul-2020","P",88,"2","1&2"
"1043828","puhinui upper (hard)","arc-00141",2007284,"auckland","ac","","","puhinui stream",-37.0011683693927,174.91117596724,"24-Jul-2020","P",100,"3","3"
"7012","puhoi","arc-00142",2002429,"auckland","ac","","","puhoi river",-36.4934969575699,174.615598356253,"24-Jul-2020","P",91,"1","1&3"
"7212","shakespear","arc-00144",2003461,"auckland","ac","","","slippery creek",-36.6100113826264,174.833041000104,"24-Jul-2020","P",50,"1","1"
"43918","symonds st @ ponga","arc-00145",2008260,"auckland","ac","","","symonds stream",-37.0861528392223,174.975441532674,"24-Jul-2020","P",144.333333333333,"3","3&1"
"7526","vaughan upper","arc-00146",2004154,"auckland","ac","","","vaughans stream",-36.6895320333658,174.726778271552,"24-Jul-2020","P",42,"1","1"
"44619","waitakere river","arc-00147",2005661,"auckland","ac","","","cascade stream",-36.8672414666848,174.499214639012,"24-Jul-2020","IF",63,"3","4"
"44470","wekatahi","arc-00148",2006412,"auckland","ac","","","wekatahi creek",-36.9429717471456,174.47714906939,"24-Jul-2020","IF",196.5,"2","1"
"8023","avondale @ reserve","lawa-102236",2006388,"auckland","ac","","","wairoa river",-36.9342024082176,174.666387006265,"24-Jul-2020","U",64.5,"1","1"
"8022","avondale @ thuja pl","lawa-102238",2006340,"auckland","ac","","","avondale",-36.9293968579647,174.678643586042,"24-Jul-2020","U",52,"2","2"
"45745","waiwhiu @ frith","lawa-102240",2001157,"auckland","ac","","","hoteo river",-36.2910609782856,174.562011596161,"24-Jul-2020","EF",270,"1","1"
"645519","makarau","arc-00061",2003057,"auckland","ac","lowland","native","makarau",-36.576039425937,174.50665072424,"24-Jul-2020","P",118.5,"1","1&2"
"BQ964696","aongatete at above pine ridge lane","ebop-00165",4000540,"bay of plenty","boprc","lowland","urban","waihi beach",-37.397742403468,175.933099221882,"24-Jul-2020","IF",38.75,"4","4&1"
"IM796551","awakaponga at manawahe rd","ebop-00134",4006018,"bay of plenty","boprc","lowland","rural","tarawera",-37.9288200408995,176.731258024931,"24-Jul-2020","P",176.7222671509,"2","1&3"
"JM074476","awakaponga at sh2","ebop-00133",4005938,"bay of plenty","boprc","lowland","rural","tarawera",-37.9345403211481,176.763178040202,"24-Jul-2020","P",-2.86356075606,"3","1&3"
"IM920999","awatarariki at above sh2","ebop-00156",4004934,"bay of plenty","boprc","lowland","native","tarawera",-37.888026888724,176.74326746494,"24-Jul-2020","IF",54.3067474365,"3","3"
"BQ589878","boyd east (quarry) 700m u/s boyd confluence","ebop-00168",4000379,"bay of plenty","boprc","lowland","rural","uretara",-37.5624881371204,175.897172616537,"24-Jul-2020","P",26,"2","3"
"IK074505","buddles at fenton mill rd","ebop-00127",4012161,"bay of plenty","boprc","lowland","exotic","tarawera",-38.1154061544531,176.658353653195,"24-Jul-2020","IF",65,"4","4"
"GD792833","flaxy creek at kaingaroa forest","ebop-00208",4026964,"bay of plenty","boprc","upland","native","rangitaiki",-38.7200318538799,176.541585421987,"24-Jul-2020","EF",715,"2","2"
"IH854541","haumea at haumea rd","ebop-00146",4020775,"bay of plenty","boprc","upland","rural","rangitaiki",-38.3791863492847,176.760910896845,"24-Jul-2020","P",161,"5","2"
"JH152875","hikurangi at grant rd","ebop-00145",4019998,"bay of plenty","boprc","upland","rural","rangitaiki",-38.3480691198663,176.793431007138,"24-Jul-2020","P",191,"3","3&2"
"GO496071","kaikokopu u/s waerenga rd","ebop-00107",4002617,"bay of plenty","boprc","lowland","rural","waihi estuary",-37.8000597774489,176.463552432463,"24-Jul-2020","P",8.5,"4","1&4"
"HK221324","kaipara at tarawera falls rd","ebop-00128",4012778,"bay of plenty","boprc","lowland","exotic","tarawera",-38.134647699604,176.562050498868,"24-Jul-2020","IF",129,"3","3"
"DO960965","kaitemako at welcome bay rd","ebop-00185",4001531,"bay of plenty","boprc","lowland","urban","kaitemako",-37.7277072351003,176.172602526316,"24-Jul-2020","P",28,"3","3"
"FN483016","kaituna trib at maungarangi rd","lawa-100486",4004928,"bay of plenty","boprc","lowland","exotic","kaituna",-37.8982906210395,176.353042969189,"24-Jul-2020","EF",128.333333333333,"2","2&1"
"JK670713","kakahotoa at omataroa forest","lawa-100488",4011431,"bay of plenty","boprc","upland","exotic","rangitaiki",-38.0908762673173,176.839110890288,"24-Jul-2020","EF",187.518936157,"3","1&2&3"
"IL616616","karaponga at mcivor rd","ebop-00160",4008127,"bay of plenty","boprc","lowland","rural","tarawera",-38.0135717093585,176.715004381314,"24-Jul-2020","P",198.7630500795,"3","1&3"
"FO123493","raparapahoe at te puke highway","ebop-00109",4002228,"bay of plenty","boprc","lowland","rural","kaituna",-37.7665584129772,176.306154584741,"24-Jul-2020","P",0.8853328749535,"4","4&1"
"RO685757","kopua at sh35","lawa-100494",4001899,"bay of plenty","boprc","lowland","rural","waikawa coastal",-37.6943116628298,177.727012095527,"24-Jul-2020","EF",281,"1","1"
"DO466896","kopurererua trib at sh29","ebop-00187",4001649,"bay of plenty","boprc","lowland","rural","kopurererua",-37.7354223292293,176.116831561852,"24-Jul-2020","P",71.5,"2","1"
"KK231108","kotorenui at kotorenui rd","lawa-100501",4013595,"bay of plenty","boprc","lowland","exotic","whakatane",-38.1432245471255,176.905843531758,"24-Jul-2020","EF",121,"1","3"
"ML366042","kutarere at sh2","ebop-00175",4010701,"bay of plenty","boprc","lowland","rural","kutarere area",-38.0508601006698,177.14404003165,"24-Jul-2020","P",131.5,"2","2&1"
"GK027882","lake okataina trib at western okataina track","ebop-00121",4010857,"bay of plenty","boprc","upland","native","kaituna",-38.0885064829066,176.423686697277,"24-Jul-2020","IF",416,"1","2"
"FK336093","lake okareka trib at millar rd mci","ebop-00119",4013582,"bay of plenty","boprc","upland","rural","tarawera",-38.1617618808697,176.348314564689,"24-Jul-2020","P",399,"3","1&3"
"GL803445","lake rotoehu trib at sh30","ebop-00116",4008961,"bay of plenty","boprc","upland","native","lake rotoehu",-38.035249871518,176.509603021759,"24-Jul-2020","P",335,"1","1"
"II633291","mangaharakeke u/s pokairoa confluence","ebop-00206",4019083,"bay of plenty","boprc","upland","exotic","rangitaiki",-38.3125563010494,176.732149578353,"24-Jul-2020","P",302,"4","4"
"EK206408","mangakakahi at linton park","ebop-00118",4012441,"bay of plenty","boprc","upland","exotic","kaituna",-38.1370046964046,176.218252360144,"24-Jul-2020","P",299,"3","2"
"GI416335","mangakino at rerewhakaaitu rd","ebop-00124",4018810,"bay of plenty","boprc","upland","exotic","rangitaiki",-38.3163251437059,176.478876302146,"24-Jul-2020","P",470,"2","1&2"
"IG937633","mangamate at te urewera boundary","ebop-00147",4022556,"bay of plenty","boprc","upland","native","rangitaiki",-38.4604898751668,176.774643534261,"24-Jul-2020","IF",341,"3","3"
"IL607501","mangaone at mangaone rd","ebop-00149",4008644,"bay of plenty","boprc","lowland","rural","tarawera",-38.0239546026795,176.714549950172,"24-Jul-2020","IF",64.99665260315,"3","1&3&2"
"JI362407","mangapapa at galatea rd","ebop-00125",4018783,"bay of plenty","boprc","upland","rural","rangitaiki",-38.2994159156479,176.814851130063,"24-Jul-2020","EF",298.6,"2","2&1"
"IK094269","mangato at tarawera forest","ebop-00126",4012847,"bay of plenty","boprc","lowland","exotic","tarawera",-38.1365792386558,176.661704376604,"24-Jul-2020","EF",77,"3","4"
"GN342605","mangatoetoe at old coach rd","ebop-00113",4003752,"bay of plenty","boprc","lowland","rural","waihi estuary",-37.8425133172807,176.448123705699,"24-Jul-2020","P",58,"3","2"
"CP652620","mangawhai at sh2","ebop-00193",4000893,"bay of plenty","boprc","lowland","rural","waipapa",-37.6726252747747,176.021963565124,"24-Jul-2020","P",24,"2","3"
"LL586886","maraetotara at robert lane","ebop-00179",4007551,"bay of plenty","boprc","lowland","rural","maraetotara coastal",-37.9781336396612,177.051192381003,"24-Jul-2020","P",70.25,"3","1&3"
"LL389822","maraetotara at burma rd","ebop-00201",4007888,"bay of plenty","boprc","lowland","native","maraetotara coastal",-37.9846378633786,177.029176337338,"24-Jul-2020","IF",83,"2","2"
"IN486083","mimiha at mimiha rd","ebop-00111",4004883,"bay of plenty","boprc","lowland","rural","mimiha coastal",-37.8820930457752,176.693627929963,"24-Jul-2020","P",90.5,"3","3&2"
"JK693267","moetahanga at above omataroa rd","lawa-100489",4013026,"bay of plenty","boprc","upland","native","rangitaiki",-38.1309507361275,176.843835104465,"24-Jul-2020","EF",283,"3","3"
"QM722911","motu at sh35","ebop-00211",4005253,"bay of plenty","boprc","lowland","native","motu",-37.8644961372797,177.628459993343,"24-Jul-2020","IF",60.5,"6","6&2"
"RO893938","nahunahu at sh35","lawa-100495",4001627,"bay of plenty","boprc","lowland","rural","waikawa coastal",-37.6770612346519,177.749493641228,"24-Jul-2020","EF",105,"3","3"
"JL684448","ngakauroa at macdonald rd","ebop-00155",4008878,"bay of plenty","boprc","lowland","rural","rangitaiki",-38.024793435309,176.837203710986,"24-Jul-2020","P",-1.57670152187,"4","4"
"CO436131","ngamuwahine at 217 ngamuwahine rd","ebop-00224",4002936,"bay of plenty","boprc","upland","native","wairoa",-37.8073467609668,176.002875411371,"24-Jul-2020","IF",244,"4","4"
"EL187015","ngongotaha at ngongotaha domain","ebop-00142",4010395,"bay of plenty","boprc","upland","rural","kaituna",-38.0824793891929,176.213681360004,"24-Jul-2020","P",369.25,"5","1&5"
"DK804886","ngongotaha at paradise valley rd mci","ebop-00141",4010809,"bay of plenty","boprc","upland","rural","kaituna",-38.0948052704845,176.170569818462,"24-Jul-2020","P",370,"5","5"
"DK798891","ngongotaha at upper paradise valley rd","ebop-00220",4010809,"bay of plenty","boprc","upland","rural","kaituna",-38.0948584871426,176.169933698962,"24-Jul-2020","P",370,"5","5"
"BQ450716","ngututuru at 240 rea rd","ebop-00169",4000405,"bay of plenty","boprc","lowland","rural","te rereatukahia",-37.5774034107214,175.881980099269,"24-Jul-2020","P",326,"2","1"
"MK283728","nukuhou at old quarry","ebop-00011",4011135,"bay of plenty","boprc","lowland","rural","nukuhou",-38.079460107068,177.136212187178,"24-Jul-2020","P",20,"4","4"
"GM013930","oeuteheuheu at allport rd","ebop-00159",4005167,"bay of plenty","boprc","lowland","native","waihi estuary",-37.9043607921215,176.413535340844,"24-Jul-2020","P",106,"2","3&1"
"DM860383","ohaupara at pyes pa rd","ebop-00148",4006434,"bay of plenty","boprc","upland","native","kaituna",-37.9604047698673,176.171115319963,"24-Jul-2020","IF",431.5,"3","3&2"
"FO166207","ohineangaanga at whitehead ave","ebop-00106",4002382,"bay of plenty","boprc","lowland","urban","kaituna",-37.792181842676,176.312224551011,"24-Jul-2020","P",24.7032000224,"3","4&1"
"LL529952","ohope trib at above ohope beach school","ebop-00203",4007422,"bay of plenty","boprc","lowland","native","maraetotara coastal",-37.9724203812413,177.044471661417,"24-Jul-2020","IF",117,"1","1"
"CO982925","ohourere at crawford rd","ebop-00195",4001618,"bay of plenty","boprc","lowland","rural","wairoa",-37.7342505634673,176.061895943929,"24-Jul-2020","P",79,"3","4"
"FI646606","okaro wetland at above inlet a","ebop-00122",4018156,"bay of plenty","boprc","upland","rural","okaro",-38.2945475978815,176.389873772331,"24-Jul-2020","P",436,"2","2"
"FM217609","onaia trib at blakely pacific","lawa-100487",4005683,"bay of plenty","boprc","upland","exotic","kaituna",-37.9357875732324,176.324478153158,"24-Jul-2020","EF",187,"2","4"
"KJ836663","opurana at tuhoe forest","lawa-100502",4014567,"bay of plenty","boprc","lowland","rural","whakatane",-38.1809031125789,176.976863005085,"24-Jul-2020","EF",78.75,"2","6&2&1"
"MK668495","oruamanganui at waiotahe valley rd","lawa-100498",4012220,"bay of plenty","boprc","lowland","exotic","waiotahi",-38.0988733395737,177.181199496166,"24-Jul-2020","EF",171,"3","3"
"FD662607","otangimoana at kaingaroa","lawa-100490",4027146,"bay of plenty","boprc","upland","native","rangitaiki",-38.7441966084785,176.412859605252,"24-Jul-2020","P",620,"4","4&1"
"OK303607","otara at old east rd","ebop-00213",4011726,"bay of plenty","boprc","lowland","native","otara",-38.0820238786735,177.366534136898,"24-Jul-2020","IF",43,"5","5&1"
"OL858216","oteakona at mihaere rd","lawa-100492",4010135,"bay of plenty","boprc","lowland","native","waiaua",-38.0248806868714,177.426312700939,"24-Jul-2020","IF",53,"2","3"
"OL810173","oteakona trib at forestry rd","lawa-100493",4009810,"bay of plenty","boprc","lowland","rural","waiaua",-38.0289763041518,177.421117044503,"24-Jul-2020","EF",55,"2","2"
"EO010924","otumanga at waipunga park","ebop-00184",4001550,"bay of plenty","boprc","lowland","native","welcome bay area",-37.7312538490663,176.178403388747,"24-Jul-2020","U",40,"2","2"
"DP036592","oturu at borell rd","ebop-00186",4000905,"bay of plenty","boprc","lowland","rural","oturu",-37.6741044363331,176.065507694409,"24-Jul-2020","P",20,"3","3&1"
"EO611496","owairoa at otawa","ebop-00199",4002262,"bay of plenty","boprc","lowland","native","waitao area",-37.767912536761,176.248128178862,"24-Jul-2020","IF",234.2253723145,"2","2&1"
"KK455031","owhakatoro at te manawa o tuhoe trust","lawa-100503",4013642,"bay of plenty","boprc","lowland","rural","whakatane",-38.1492430171045,176.93168166671,"24-Jul-2020","IF",73.6666666666667,"4","4&1"
"KJ764798","paekoau at tuhoe forest","lawa-100504",4014503,"bay of plenty","boprc","lowland","exotic","whakatane",-38.1690537476177,176.967957514513,"24-Jul-2020","EF",59,"3","3"
"JI046597","pahekeheke at pokairoa rd","ebop-00123",4018298,"bay of plenty","boprc","upland","exotic","rangitaiki",-38.2834549028045,176.77785576013,"24-Jul-2020","EF",249.545454545455,"3","1&3"
"EN560731","raparapahoe at no 3 rd mci","ebop-00110",4003652,"bay of plenty","boprc","lowland","native","kaituna",-37.8369034672928,176.2453491368,"24-Jul-2020","IF",162,"3","2"
"IG109370","pekepeke at above kiorenui rd","ebop-00207",4023034,"bay of plenty","boprc","upland","exotic","rangitaiki",-38.4871500669264,176.681176290706,"24-Jul-2020","EF",277,"4","4&1"
"BN951669","piako at old kaimai rd","ebop-00197",4003788,"bay of plenty","boprc","upland","native","wairoa",-37.8502611071653,175.949472127574,"24-Jul-2020","IF",465,"2","2"
"IN023010","pikowai at pikowai rd","ebop-00135",4004837,"bay of plenty","boprc","lowland","rural","pikowai coastal",-37.8902533554933,176.641406111206,"24-Jul-2020","P",79,"3","1&3"
"HM958955","pikowai trib at pikowai rd","ebop-00136",4005050,"bay of plenty","boprc","lowland","rural","pikowai coastal",-37.8954364237882,176.634317993186,"24-Jul-2020","P",80.3333333333333,"2","1&2"
"FN962342","pokopoko at allport rd","ebop-00158",4004386,"bay of plenty","boprc","lowland","rural","waihi estuary",-37.8673874306044,176.406076551462,"24-Jul-2020","P",60.5,"3","3&2"
"GN922883","pongakawa at sh2","ebop-00016",4003250,"bay of plenty","boprc","lowland","rural","pongakawa",-37.8155217087343,176.512698416166,"24-Jul-2020","P",17,"5","2"
"GN947182","pongakawa trib at rotoehu rd","ebop-00138",4004412,"bay of plenty","boprc","lowland","rural","pongakawa",-37.8785011548187,176.518487005035,"24-Jul-2020","EF",33,"4","4"
"MK704278","ponuiahine at waiotahe valley rd","lawa-100499",4012902,"bay of plenty","boprc","lowland","exotic","waiotahi",-38.118242835778,177.186375815501,"24-Jul-2020","EF",78.5,"2","1&2"
"GN561803","puanene at sh2","ebop-00140",4003552,"bay of plenty","boprc","lowland","rural","waihi estuary",-37.8239428509772,176.472108857223,"24-Jul-2020","P",43,"3","3"
"EJ459985","puarenga at hemo gorge entrance","ebop-00117",4013676,"bay of plenty","boprc","upland","exotic","kaituna",-38.1743441623186,176.248792249875,"24-Jul-2020","P",402,"4","4"
"IG296601","rangitaiki u/s murupara","ebop-00222",4022634,"bay of plenty","boprc","upland","exotic","rangitaiki",-38.4657383202214,176.701442553696,"24-Jul-2020","EF",195.5,"7","6&1"
"CO548000","rataroa trib at soldiers rd mci","ebop-00196",4003173,"bay of plenty","boprc","lowland","rural","wairoa",-37.8187660330483,176.016127536238,"24-Jul-2020","P",238,"2","1"
"SO988959","raukokore d/s sh35","ebop-00210",4001560,"bay of plenty","boprc","lowland","native","raukokore",-37.6701786465712,177.873107700075,"24-Jul-2020","IF",22,"5","6"
"MK709674","ruakaka at waiotahe valley rd","lawa-100500",4011536,"bay of plenty","boprc","lowland","native","waiotahi",-38.0825993236717,177.184943012154,"24-Jul-2020","EF",58,"3","3"
"IK438821","ruruanga at prideaux park","ebop-00150",4010870,"bay of plenty","boprc","lowland","exotic","tarawera",-38.0856924845805,176.698437125447,"24-Jul-2020","IF",40,"4","4"
"IK358855","ruruanga at valley rd","ebop-00151",4010901,"bay of plenty","boprc","lowland","exotic","tarawera",-38.0829595284438,176.689101868119,"24-Jul-2020","IF",55.5,"4","4&2"
"BR574116","tahawai at 164 lindemann rd","ebop-00161",4000295,"bay of plenty","boprc","lowland","rural","tahawai",-37.5410882817339,175.894589690661,"24-Jul-2020","P",32,"2","2"
"OK643836","taipouri trib at above confluence","lawa-100497",4011013,"bay of plenty","boprc","upland","native","otara",-38.0599797976791,177.404019450065,"24-Jul-2020","EF",401,"1","1"
"GJ671810","tarawera at lake outlet campsite","ebop-00223",4014379,"bay of plenty","boprc","upland","native","tarawera",-38.1827885289788,176.501646950726,"24-Jul-2020","IF",531.5,"6","6"
"MI041147","tauranga at matahi valley rd","lawa-100505",4019399,"bay of plenty","boprc","lowland","native","whakatane",-38.3124365284492,177.121745020191,"24-Jul-2020","IF",318.5,"5","5"
"LK445461","tauranga at wardlaw glade","ebop-10031",4012286,"bay of plenty","boprc","lowland","native","whakatane",-38.1067352286889,177.042222589164,"24-Jul-2020","IF",224,"6","6"
"LM438047","te hiku o te tuna at ohope rd","ebop-00180",4007288,"bay of plenty","boprc","lowland","native","maraetotara coastal",-37.964198861801,177.033666467586,"24-Jul-2020","IF",58,"2","2"
"LM411039","te hiku o te tuna at opposite brown rd","ebop-00202",4007288,"bay of plenty","boprc","lowland","native","maraetotara coastal",-37.9650534643786,177.030550331285,"24-Jul-2020","IF",58,"2","2"
"BQ536514","te mania at chard rd","ebop-00170",4000448,"bay of plenty","boprc","lowland","rural","te mania",-37.5954031546565,175.892424880171,"24-Jul-2020","P",40,"2","3&1"
"CP556282","te puna trib at 257 whakamaramara rd","ebop-00194",4001172,"bay of plenty","boprc","lowland","exotic","te puna",-37.7033274624811,176.012290019307,"24-Jul-2020","P",242,"1","1"
"KL246784","te rahu canal at sh30","ebop-00132",4007917,"bay of plenty","boprc","lowland","native","whakatane",-37.9923944910398,176.899470347107,"24-Jul-2020","P",0.968735814095,"4","4"
"BQ417600","te rereatukahia at sapphire springs holiday park","ebop-00189",4000421,"bay of plenty","boprc","lowland","native","te rereatukahia",-37.5879460362261,175.878650259558,"24-Jul-2020","IF",101,"3","2"
"BQ253452","te rereatukahia trib at tuahi track","ebop-00200",4000456,"bay of plenty","boprc","upland","native","te rereatukahia",-37.6017663213706,175.860587124246,"24-Jul-2020","IF",242,"2","2"
"FL834322","te toroa trib at sh30","ebop-00152",4009316,"bay of plenty","boprc","upland","native","kaituna",-38.0495416329831,176.399858372007,"24-Jul-2020","P",322.333333333333,"2","1&2"
"BR592417","tuapiro at woodland rd mci","ebop-00225",4000229,"bay of plenty","boprc","lowland","rural","tuapiro",-37.5139237931358,175.895586779695,"24-Jul-2020","IF",104,"4","1&4"
"BR748451","tuapiro at mcmillan rd","ebop-10029",4000221,"bay of plenty","boprc","lowland","exotic","tuapiro",-37.5106652599268,175.913027253029,"24-Jul-2020","IF",45,"4","1&4"
"BR418554","tuapiro at woodland rd ford","ebop-00188",4000193,"bay of plenty","boprc","lowland","rural","tuapiro",-37.5021066918053,175.875484394462,"24-Jul-2020","IF",88,"4","4&3"
"LL534603","tunanui trib at burma rd","ebop-00178",4008429,"bay of plenty","boprc","lowland","exotic","wainui area",-38.0037866960216,177.04675462969,"24-Jul-2020","EF",111,"3","3"
"DL906092","tupapakurua at sh5","ebop-00177",4010022,"bay of plenty","boprc","upland","rural","kaituna",-38.0764582505394,176.18136799862,"24-Jul-2020","P",311,"4","3"
"BQ696825","uretara at wharawhara rd","ebop-00163",4000387,"bay of plenty","boprc","lowland","exotic","uretara",-37.5669079064657,175.909433519699,"24-Jul-2020","P",37,"1","2"
"BQ420756","uretara at 300 rea rd","ebop-00164",4000392,"bay of plenty","boprc","lowland","rural","uretara",-37.5741086419033,175.878162372953,"24-Jul-2020","IF",215,"4","4"
"RN028324","waewaetukuku at ohotu rd","lawa-100482",4004413,"bay of plenty","boprc","upland","native","haparapara",-37.8259954733393,177.660837004757,"24-Jul-2020","EF",278,"2","2"
"GN068189","waiari at roydon downs rd mci","ebop-00114",4004707,"bay of plenty","boprc","lowland","rural","waihi estuary",-37.8807964772349,176.418686364045,"24-Jul-2020","P",58,"4","4"
"BS847026","waiau at athenree lavender holiday park","ebop-00167",4000082,"bay of plenty","boprc","lowland","native","waiau",-37.4583920456932,175.922243503992,"24-Jul-2020","P",216,"3","4"
"OL578360","waiaua at waiaua rd","ebop-00212",4009026,"bay of plenty","boprc","lowland","rural","waiaua",-38.013161134471,177.393777585903,"24-Jul-2020","IF",18,"5","1"
"BS963693","waihi at ocean view rd","ebop-00166",4000022,"bay of plenty","boprc","lowland","urban","waihi beach",-37.3979784159214,175.933029368019,"24-Jul-2020","IF",65,"2","3"
"GL498258","waiiti at sh30 mci","ebop-00154",4009586,"bay of plenty","boprc","upland","urban","kaituna",-38.0531211698546,176.475754275288,"24-Jul-2020","IF",281.799995422,"1","3&1"
"SO393936","waiiti at sh35","ebop-00173",4001682,"bay of plenty","boprc","lowland","rural","waikawa coastal",-37.6749735719721,177.806010179926,"24-Jul-2020","IF",49.5,"2","2&3"
"RN204576","waikakariki u/s sh35","lawa-100483",4004002,"bay of plenty","boprc","lowland","native","haparapara",-37.8025502754558,177.679279367434,"24-Jul-2020","EF",97,"1","4"
"RN083586","waikakariki at sh35","lawa-100484",4003962,"bay of plenty","boprc","lowland","native","haparapara",-37.802211309773,177.665603895887,"24-Jul-2020","EF",10,"1","4"
"IM914232","waikamihi at braemar rd","ebop-00112",4006797,"bay of plenty","boprc","lowland","rural","tarawera",-37.9570844367008,176.746091932989,"24-Jul-2020","P",122.544502258,"3","2"
"HK702919","waikanapiti at rotoma forest","ebop-00115",4010740,"bay of plenty","boprc","upland","native","tarawera",-38.0795259905299,176.614155946389,"24-Jul-2020","IF",258,"3","3"
"FO000114","waikokoi at no. 4 rd mci","ebop-00108",4002969,"bay of plenty","boprc","lowland","native","kaituna",-37.8010797579298,176.293728369445,"24-Jul-2020","P",84.9730758667,"2","2"
"FK019522","waingaehe u/s sh30","ebop-00079",4011992,"bay of plenty","boprc","upland","exotic","kaituna",-38.124170673116,176.310408482322,"24-Jul-2020","P",318,"3","3"
"KM983036","wainui-te-whara at king st","ebop-00131",4007324,"bay of plenty","boprc","lowland","urban","whakatane",-37.9670081759162,176.981959686315,"24-Jul-2020","U",47.0499992371,"1","1"
"LM085075","wainui-te-whara at toi track bridge","ebop-00129",4007250,"bay of plenty","boprc","lowland","urban","whakatane",-37.9630341169815,176.993417951129,"24-Jul-2020","IF",88.038709640525,"2","1&2"
"LL146987","wainui-te-whara at toi track bridge upper","ebop-00130",4007441,"bay of plenty","boprc","lowland","native","whakatane",-37.9707647330585,177.000766920768,"24-Jul-2020","IF",121.01496887205,"2","2"
"LL693306","wainui at te kooti rd","ebop-00176",4009356,"bay of plenty","boprc","lowland","rural","wainui area",-38.0298195649959,177.066260758123,"24-Jul-2020","P",56,"3","3&1"
"BP982240","wainui at tim rd","ebop-00182",4001152,"bay of plenty","boprc","upland","native","tauranga harbour",-37.7087967533183,175.947458131653,"24-Jul-2020","IF",258,"3","3"
"NJ664263","waioeka at historic tauranga bridge","ebop-00214",4016485,"bay of plenty","boprc","lowland","native","waioeka",-38.2054393870475,177.301020340523,"24-Jul-2020","IF",56,"6","6"
"FL165008","waiohewa at rangiteaorere rd","ebop-00153",4010373,"bay of plenty","boprc","upland","rural","kaituna",-38.0799981343029,176.325100023538,"24-Jul-2020","P",281.013326009333,"3","1&2&3"
"KL808737","waioho at titoki rd","ebop-00157",4007683,"bay of plenty","boprc","lowland","rural","whakatane",-37.9944815581702,176.963584695068,"24-Jul-2020","IF",-3.78522467613,"7","1"
"EO176958","waioraka at welcome bay rd","ebop-00183",4001522,"bay of plenty","boprc","lowland","urban","welcome bay area",-37.7276759389758,176.197080668214,"24-Jul-2020","U",17,"2","2"
"FJ355541","wairoa at tarawera rd","ebop-00144",4029008,"bay of plenty","boprc","upland","rural","tarawera",-38.2114016683914,176.35271394557,"24-Jul-2020","EF",419,"3","3"
"HM600703","waitahanui at d/s campbell rd","ebop-00137",4005570,"bay of plenty","boprc","lowland","native","waitahanui",-37.9194018980126,176.594684997449,"24-Jul-2020","EF",95.3333333333333,"3","1&4&2"
"UP046782","waitawake u/s sh35","ebop-00204",4000811,"bay of plenty","boprc","lowland","native","waiokaha coastal",-37.5912512946111,177.987661824771,"24-Jul-2020","IF",169,"3","3"
"UP025805","waitawake at sh35","ebop-00172",4000810,"bay of plenty","boprc","lowland","rural","waiokaha coastal",-37.5892320588131,177.985161697984,"24-Jul-2020","IF",60,"3","3"
"BQ292188","waitekohe at thompson's track upper","ebop-00198",4000472,"bay of plenty","boprc","upland","native","waitekohe",-37.6253881511138,175.865945104396,"24-Jul-2020","IF",248.666666666667,"3","1&3"
"NL123604","waiwhakatoitoi at  thompson rd","ebop-00174",4008273,"bay of plenty","boprc","lowland","rural","waiotahi beach coastal",-37.9973353918319,177.227274492033,"24-Jul-2020","P",36.6666666666667,"1","2&1"
"SO234840","whanarua at sh35","ebop-00205",4001746,"bay of plenty","boprc","lowland","native","waikawa coastal",-37.684301239125,177.788607889751,"24-Jul-2020","IF",82,"2","2"
"UP340931","whangaparaoa at sh35","ebop-00209",4000731,"bay of plenty","boprc","lowland","native","whangaparaoa",-37.5764806360243,178.01993693279,"24-Jul-2020","P",22,"4","5&2"
"IG675465","whirinaki d/s whirinaki rd","ebop-00221",4022892,"bay of plenty","boprc","upland","native","rangitaiki",-38.4765436664172,176.745436639765,"24-Jul-2020","IF",230,"5","5"
"CP489557","youngson at plummers rd","ebop-00192",4000965,"bay of plenty","boprc","lowland","rural","waipapa",-37.6787869671077,176.003689731685,"24-Jul-2020","P",111.5,"2","1&3"
"CP435708","youngson at waipapa block rd","ebop-00191",4000839,"bay of plenty","boprc","lowland","rural","waipapa",-37.6653682685888,175.997061746798,"24-Jul-2020","P",32.5,"2","3"
"SQ00011","lower farm stream mt white rd","lawa-100399",13027911,"canterbury","ecan","upland","natural","6642400",-43.0015267458466,171.809082621004,"24-Jul-2020","IF",656,"1","1"
"SQ00013","andrews stream mt white rd","lawa-100400",13027306,"canterbury","ecan","upland","rural","6642500",-42.99175354447,171.794065138906,"24-Jul-2020","IF",562,"4","4"
"SQ00015","slovens stream craigieburn rd","lawa-100401",13031351,"canterbury","ecan","upland","rural","6641610",-43.0948196779326,171.849931357423,"24-Jul-2020","T",609,"1","1"
"SQ00018","kaiapoi river heywards rd","lawa-100402",13041931,"canterbury","ecan","lowland","rural","6640400",-43.4136293444791,172.590335700081,"24-Jul-2020","P",13,"1","4&1"
"SQ00027","ohoka stream bradley's rd","lawa-100479",13040406,"canterbury","ecan","lowland","urban","6640460",-43.3603439638717,172.57119023644,"24-Jul-2020","P",29,"2","2"
"SQ00028","saltwater creek toppings road","lawa-100403",13036814,"canterbury","ecan","lowland","rural","6620100",-43.2561378980469,172.66911871467,"24-Jul-2020","P",10,"4","4"
"SQ00034","silverstream lincoln-leeston road","lawa-100404",13050676,"canterbury","ecan","lowland","rural","6800300",-43.6759021003254,172.389673808279,"24-Jul-2020","P",22,"3","3"
"SQ00035","styx river styx mill reserve","lawa-100405",13044113,"canterbury","ecan","lowland","rural","6640100",-43.4625967026844,172.603574429843,"24-Jul-2020","P",21,"3","2"
"SQ00046","limestone stream claverly road","lawa-100406",13015087,"canterbury","ecan","lowland","natural","6430000",-42.6096683481996,173.45777935669,"24-Jul-2020","P",13,"3","3"
"SQ00049","oaro river upstream sh1","lawa-100407",13012430,"canterbury","ecan","lowland","rural","6380000",-42.5158119688008,173.501090968649,"24-Jul-2020","S",29,"4","4"
"SQ00059","hanmer river hanmer road","lawa-100408",13014162,"canterbury","ecan","upland","rural","6462000",-42.5776472899607,172.789907445203,"24-Jul-2020","S",432,"4","4"
"SQ00060","waitohi river lake sumner rd","lawa-100409",13022601,"canterbury","ecan","upland","rural","6510900",-42.856008716089,172.528786818605,"24-Jul-2020","T",340,"5","5"
"SQ00063","dudley creek corner banks ave and north parade rd","lawa-100410",13045712,"canterbury","ecan","lowland","urban","6668500",-43.5104116382142,172.663551309176,"24-Jul-2020","U",0,"1","1"
"SQ00069","boyle river sh7","lawa-100411",13012352,"canterbury","ecan","upland","natural","6463640",-42.5146840309983,172.385529674736,"24-Jul-2020","IF",587,"2","5&2"
"SQ00070","hope river sh7","lawa-100412",13014495,"canterbury","ecan","upland","rural","6463600",-42.5882771368727,172.450633988176,"24-Jul-2020","T",417,"3","6"
"SQ00102","kaituna stream kaituna valley rd","lawa-100413",13052677,"canterbury","ecan","lowland","rural","6770500",-43.726032422846,172.709013577169,"24-Jul-2020","P",324.75,"3","3&1"
"SQ00105","peraki creek peraki rd","lawa-100414",13057373,"canterbury","ecan","lowland","rural","6750000",-43.8543378048182,172.824900734076,"24-Jul-2020","P",78,"3","1"
"SQ00106","okuti river okuti valley rd","lawa-100415",13054892,"canterbury","ecan","lowland","rural","6760110",-43.7863998667459,172.807600511111,"24-Jul-2020","P",174,"1","1"
"SQ00111","little akaloa stream akaloa rd","lawa-100416",13051335,"canterbury","ecan","lowland","rural","6690500",-43.6898938468625,172.971543083983,"24-Jul-2020","P",130,"3","3"
"SQ00113","pigeon bay stream pigeon bay rd","lawa-100417",13051750,"canterbury","ecan","lowland","rural","6690000",-43.6993749742079,172.896875669259,"24-Jul-2020","P",14,"3","3"
"SQ00120","ashburton river north branch sh72","ecan-00020",13048978,"canterbury","ecan","upland","rural","6880100",-43.6107783770533,171.538793688942,"24-Jul-2020","B",430,"2","3"
"SQ00122","smite river lake heron station","lawa-100418",13042859,"canterbury","ecan","upland","rural","6852300",-43.4236846520662,171.193561956797,"24-Jul-2020","T",730.2,"2","3&1"
"SQ00126","trib of stour upstream confluence stour river","lawa-100419",13049881,"canterbury","ecan","upland","rural","6880800",-43.6315500812202,171.271650737043,"24-Jul-2020","T",633,"5","5"
"SQ00128","avon river victoria square","lawa-100420",13046232,"canterbury","ecan","lowland","urban","6668000",-43.5280737868902,172.634878382016,"24-Jul-2020","U",5,"4","4&1"
"SQ00129","avon river at ucsa","lawa-100421",13046137,"canterbury","ecan","lowland","urban","6668000",-43.5244804853371,172.581413385167,"24-Jul-2020","U",14,"2","2"
"SQ00130","waimari stream kotare street","lawa-100422",13046018,"canterbury","ecan","lowland","urban","6668000",-43.5217014973006,172.592069950951,"24-Jul-2020","U",10,"3","3"
"SQ00132","bush stream upstream rangitata gorge road","ecan-00145",13049939,"canterbury","ecan","upland","rural","6930000",-43.6259033227865,170.861555341643,"24-Jul-2020","T",731,"5","1&5"
"SQ00133","scour stream upstream rangitata gorge road","lawa-100423",13050961,"canterbury","ecan","upland","rural","6930000",-43.6591037433104,170.881588611524,"24-Jul-2020","T",697.5,"4","3"
"SQ00134","forest creek rangitata gorge road","lawa-100424",13052672,"canterbury","ecan","upland","exotic","6931000",-43.705909747324,170.915233783898,"24-Jul-2020","T",699,"5","5"
"SQ00135","owhetoro stream richfield road","lawa-100425",13050544,"canterbury","ecan","lowland","rural","6680400",-43.6681391214799,172.817837909548,"24-Jul-2020","P",11,"3","3"
"SQ00137","hukahuka turoa stm port levy road","lawa-100426",13053384,"canterbury","ecan","lowland","rural","6760140",-43.7491145041741,172.797374630144,"24-Jul-2020","P",86,"1","3"
"SQ00139","prices stream prices valley road","lawa-100427",13054511,"canterbury","ecan","lowland","rural","6770100",-43.7896890781203,172.691281421184,"24-Jul-2020","P",44,"3","3"
"SQ00152","mason river sh70 near mt lyford","lawa-100429",13012043,"canterbury","ecan","upland","rural","6460900",-42.5049486401519,173.167306309229,"24-Jul-2020","T",529.333333333333,"4","4"
"SQ00153","conway river cloudy range rd","lawa-100430",13010466,"canterbury","ecan","upland","rural","6430000",-42.4461281300878,173.273850368984,"24-Jul-2020","S",349,"4","4"
"SQ00155","kahutara river sh70","lawa-100431",13008920,"canterbury","ecan","upland","rural","6340000",-42.3867661538746,173.449972598135,"24-Jul-2020","S",241,"4","4&1"
"SQ00157","black miller stm sh1","lawa-100432",13004918,"canterbury","ecan","lowland","natural","6240000",-42.2248328288388,173.853876563868,"24-Jul-2020","S",91,"1","1"
"SQ00158","ohau stream sh1","lawa-100433",13005344,"canterbury","ecan","lowland","rural","6250000",-42.2448213704079,173.831190608159,"24-Jul-2020","S",215,"2","3"
"SQ00159","blue duck stream blue duck rd","lawa-100434",13006067,"canterbury","ecan","lowland","natural","6280000",-42.2770096632993,173.766296414589,"24-Jul-2020","P",192,"2","2"
"SQ00160","puhi puhi river puhi puhi road","lawa-100435",13006666,"canterbury","ecan","lowland","rural","6290100",-42.2952308581568,173.722589335223,"24-Jul-2020","S",101,"4","4"
"SQ00162","middle creek sh1","lawa-100436",13008570,"canterbury","ecan","lowland","rural","6300000",-42.3692461672706,173.678668129474,"24-Jul-2020","P",9,"4","4"
"SQ00165","school stream sh7","lawa-100437",13019456,"canterbury","ecan","upland","urban","6510710",-42.7711019827289,172.850390933804,"24-Jul-2020","P",172,"3","4"
"SQ00169","pawsons stream pawsons valley road","lawa-100438",13053274,"canterbury","ecan","lowland","rural","6740600",-43.7416363360447,172.932593530409,"24-Jul-2020","P",62.5,"1","1&3"
"SQ00170","balguerie stream balguerie rd","lawa-100439",13055615,"canterbury","ecan","lowland","urban","6740220",-43.8068709801763,172.972004615184,"24-Jul-2020","P",87,"3","2"
"SQ00171","kaik stream kaik road","lawa-100440",13056853,"canterbury","ecan","lowland","rural","6740100",-43.8359493905241,172.946954415619,"24-Jul-2020","P",48,"3","3"
"SQ00172","narbey stm long bay road","lawa-100441",13056479,"canterbury","ecan","lowland","natural","6730000",-43.8276418629953,173.044952584349,"24-Jul-2020","S",134,"3","3"
"SQ00174","barrys bay stream barrys bay valley rd","lawa-100442",13053761,"canterbury","ecan","lowland","rural","6740700",-43.7581594766927,172.905234648854,"24-Jul-2020","P",79,"1","1"
"SQ00176","wainui stream powell villiage camp","lawa-100480",13055848,"canterbury","ecan","lowland","exotic","6741000",-43.8114733332502,172.894554244259,"24-Jul-2020","P",36,"3","3"
"SQ00177","charteris bay stream charteris bay road","lawa-100443",13050290,"canterbury","ecan","lowland","exotic","6670500",-43.6578777059699,172.706944382184,"24-Jul-2020","P",268,"2","1"
"SQ00180","waiake stream loudon farm","lawa-100444",13050677,"canterbury","ecan","lowland","exotic","6670430",-43.6702782912428,172.675750700152,"24-Jul-2020","P",21.75,"3","3&1"
"SQ00206","orari river lochaber road","lawa-100445",13058384,"canterbury","ecan","upland","rural","6950000",-43.8732054852606,171.006663014649,"24-Jul-2020","T",597,"5","5"
"SQ00207","ribbonwood creek plantation rd","lawa-100446",13060220,"canterbury","ecan","upland","exotic","6960941",-43.9677285521472,170.823187720061,"24-Jul-2020","P",452,"1","4"
"SQ00214","raincliff stream middle valley road","lawa-100447",13063422,"canterbury","ecan","upland","rural","6961000",-44.1690111455195,170.989380911757,"24-Jul-2020","P",162.333333333333,"4","4&1"
"SQ00218","makikihi river milnes road","lawa-100448",13067797,"canterbury","ecan","upland","rural","7060000",-44.6169132006004,170.986357923328,"24-Jul-2020","IF",187,"3","3"
"SQ00224","waihi gorge waihi gorge road","ecan-10038",13060676,"canterbury","ecan","upland","natural","6960250",-44.0019567491094,171.154910557548,"24-Jul-2020","T",371,"3","2"
"SQ00225","hae hae te moana te moana road","lawa-100449",13061360,"canterbury","ecan","upland","rural","6960260",-44.0371077816793,171.1012311024,"24-Jul-2020","T",331,"4","4"
"SQ00230","ohapi creek north branch guild road","ecan-00177",13063905,"canterbury","ecan","lowland","rural","6950100",-44.2021169196205,171.345277277982,"24-Jul-2020","P",28,"2","2"
"SQ00237","rhodes stream parke rd and donahue rd","ecan-00046",13064294,"canterbury","ecan","lowland","rural","6950200",-44.2267801271643,171.407053905156,"24-Jul-2020","P",6,"1","1"
"SQ00240","pareora river brassells road","ecan-00044",13066605,"canterbury","ecan","lowland","rural","7010000",-44.4587513874968,171.13781281718,"24-Jul-2020","P",39,"1","1"
"SQ00243","pareora river cave - pareora road","lawa-100450",13065919,"canterbury","ecan","lowland","rural","7010000",-44.373429576665,170.976485886794,"24-Jul-2020","P",159,"5","1"
"SQ00257","glenfield stream sh79","lawa-100451",13062384,"canterbury","ecan","upland","rural","6961900",-44.0918568519873,170.849366775519,"24-Jul-2020","P",313,"4","4"
"SQ00266","kakahu river earls rd","ecan-00035",13063752,"canterbury","ecan","lowland","rural","6960250",-44.1891897026864,171.227491127832,"24-Jul-2020","P",50,"5","5"
"SQ00272","hook river upper hook road","lawa-100452",13068022,"canterbury","ecan","upland","natural","7070100",-44.6453898795686,170.974060278035,"24-Jul-2020","IF",460,"2","1"
"SQ00280","maerewhenua river pringles gully road","lawa-100453",13524490,"canterbury","ecan","upland","rural","7110400",-44.944950630531,170.58902162659,"24-Jul-2020","P",264.333333333333,"5","1&5"
"SQ00282","awakino river awakino road","lawa-100454",13521190,"canterbury","ecan","upland","rural","7111500",-44.7360969323297,170.424753330336,"24-Jul-2020","T",581,"4","4"
"SQ00286","ahuriri river sh8","lawa-100455",13517234,"canterbury","ecan","upland","rural","7115000",-44.4951339850605,169.764649476383,"24-Jul-2020","T",576,"5","5"
"SQ00287","quail burn henburn road","ecan-00013",13516287,"canterbury","ecan","upland","rural","7115200",-44.4481300649671,169.927884310226,"24-Jul-2020","P",526.666666666667,"5","5&1"
"SQ00336","jollies brook south branch jollies road","lawa-100456",13057584,"canterbury","ecan","lowland","rural","6840410",-43.8609693683367,172.253547429537,"24-Jul-2020","P",16,"1","1"
"SQ00366","harts creek lochheads rd","lawa-100457",13055426,"canterbury","ecan","lowland","exotic","6832300",-43.8009414272106,172.297778372953,"24-Jul-2020","P",17,"5","5"
"SQ00424","ote makura stream valley road","lawa-100458",13011380,"canterbury","ecan","lowland","natural","6360000",-42.4773679613381,173.52443408454,"24-Jul-2020","S",26,"1","3"
"SQ00491","aylmers stream aylmers valley road","lawa-100459",13056360,"canterbury","ecan","lowland","rural","6740210",-43.8223493264632,172.969015556292,"24-Jul-2020","P",179,"2","2"
"SQ00683","hurunui river sh1","nrwqn-00059",13023957,"canterbury","ecan","lowland","rural","6510000",-42.9004129138632,173.100256482659,"24-Jul-2020","P",215,"6","7"
"SQ00684","balguerie stream stoney bay road","lawa-100460",13055939,"canterbury","ecan","upland","natural","6740220",-43.8129022576767,172.983075433958,"24-Jul-2020","P",170.5,"1","1&2"
"SQ00685","grehan stream rue grehan","lawa-100461",13055727,"canterbury","ecan","lowland","natural","6740230",-43.8055503418219,172.992558133267,"24-Jul-2020","P",146,"2","3"
"SQ10005","omarama stream sh8","ecan-00117",13517098,"canterbury","ecan","upland","natural","7115100",-44.4898317092287,169.957668950886,"24-Jul-2020","T",449.5,"5","5&1"
"SQ10063","hakataramea river wrights crossing road","lawa-100462",13520062,"canterbury","ecan","upland","rural","7111400",-44.6605218824706,170.601755692981,"24-Jul-2020","P",273,"5","6"
"SQ26221","mckinnons stream wallaces bridge","ecan-00065",13063091,"canterbury","ecan","lowland","urban","6930000",-44.1521484301623,171.480380494462,"24-Jul-2020","P",30,"1","1"
"SQ26368","forks stream u/s sh8","ecan-00128",13507097,"canterbury","ecan","upland","rural","7118400",-44.000725375594,170.411869590627,"24-Jul-2020","T",767.666666666667,"4","4&1"
"SQ26369","irishman creek u/s sh8","ecan-00129",13508583,"canterbury","ecan","upland","rural","7118110",-44.0873506144388,170.348796015335,"24-Jul-2020","T",649,"5","5"
"SQ30011","leader river u/s sh1","ecan-00130",13017136,"canterbury","ecan","lowland","rural","6460400",-42.6875872916473,173.302487731526,"24-Jul-2020","P",55,"2","2"
"SQ30103","pahau river sh7","ecan-00133",13020439,"canterbury","ecan","upland","rural","6510700",-42.797563944614,172.828955215532,"24-Jul-2020","P",176,"1","1"
"SQ30162","waipara river u/s teviotdale bridge","ecan-00070",13032346,"canterbury","ecan","lowland","rural","6590000",-43.1278646888299,172.778902375745,"24-Jul-2020","P",46,"6","6"
"SQ30175","ashley river 50m u/s sh1","ecan-00071",13037437,"canterbury","ecan","lowland","rural","6620000",-43.2768152586731,172.688643197524,"24-Jul-2020","P",10,"1","1"
"SQ30184","ashley river u/s ashley gorge rd","ecan-00134",13036021,"canterbury","ecan","upland","natural","6620000",-43.2279572476556,172.228581147845,"24-Jul-2020","IF",532,"6","1"
"SQ30222","waikuku stream d/s sh1","ecan-00072",13037966,"canterbury","ecan","lowland","rural","6620300",-43.2896237670408,172.685238044038,"24-Jul-2020","P",10,"3","3"
"SQ30305","ka putahi/kaputone creek crn belfast and blakes road","lawa-102235",13043286,"canterbury","ecan","lowland","rural","6640130",-43.4521937116552,172.639706390701,"24-Jul-2020","U",9.66666666666667,"2","1&2"
"SQ30369","cam river u/s bramleys road","ecan-00080",13039770,"canterbury","ecan","lowland","rural","6640420",-43.3433888423596,172.636995813286,"24-Jul-2020","P",8,"5","1"
"SQ30390","south brook u/s marsh rd","ecan-00148",13039145,"canterbury","ecan","lowland","urban","6640420",-43.3250996233005,172.602311594076,"24-Jul-2020","P",27,"3","2"
"SQ30400","cust river u/s skewbridge road","ecan-00081",13040638,"canterbury","ecan","lowland","rural","6640440",-43.3713567159681,172.628944258392,"24-Jul-2020","P",8.5,"5","1&4"
"SQ30406","cust river tippings rd","lawa-100471",13038483,"canterbury","ecan","lowland","rural","6640440",-43.3028479066796,172.355769078127,"24-Jul-2020","P",140,"5","4"
"SQ32603","opara stream okains bay road","lawa-100465",13052751,"canterbury","ecan","lowland","rural","6700000",-43.7257694453332,173.001770898176,"24-Jul-2020","P",161.5,"4","4&3"
"SQ32943","kaiapoi river u/s harpers road","lawa-100475",13042631,"canterbury","ecan","lowland","rural","6640400",-43.4244280315712,172.56521827859,"24-Jul-2020","P",18,"1","1"
"SQ33270","kowhai river 100m u/s sh1","ecan-00102",13009676,"canterbury","ecan","lowland","rural","6320000",-42.4154852651802,173.631868766433,"24-Jul-2020","S",7,"4","4&1"
"SQ33274","lyell creek at mill road","ecan-00176",13008756,"canterbury","ecan","lowland","rural","6300000",-42.3765111944835,173.678720369756,"24-Jul-2020","P",10,"2","2"
"SQ33417","french farm stream french farm valley road","lawa-100466",13054520,"canterbury","ecan","lowland","rural","6740800",-43.7778094464382,172.898721602215,"24-Jul-2020","P",85,"1","1"
"SQ30691","pigeon bay stream innes road","lawa-100464",13052131,"canterbury","ecan","lowland","rural","6690000",-43.7112028998677,172.899337545717,"24-Jul-2020","P",55.5,"3","3"
"SQ30782","kaituna stream off kaituna valley road","ecan-00084",13053639,"canterbury","ecan","lowland","rural","6770500",-43.7564555430136,172.682471130228,"24-Jul-2020","P",16,"4","4"
"SQ30916","selwyn river u/s coes ford bridge","ecan-00086",13051729,"canterbury","ecan","lowland","rural","6800000",-43.6961298123559,172.412879789812,"24-Jul-2020","P",8,"5","5"
"SQ30928","selwyn river u/s whitecliffs rd","ecan-00088",13043804,"canterbury","ecan","upland","rural","6800000",-43.4613290495938,171.892979434991,"24-Jul-2020","P",313.75,"5","5&1&4"
"SQ30975","hanmer road drain lake road","ecan-00090",13053570,"canterbury","ecan","lowland","rural","6831700",-43.7517993594538,172.37179043252,"24-Jul-2020","P",16.5900001526,"1","3"
"SQ30976","boggy creek u/s lake road","ecan-00091",13054093,"canterbury","ecan","lowland","rural","6831900",-43.7655479551051,172.357850515526,"24-Jul-2020","P",8,"1","1"
"SQ10206","spring creek u/s sh8","ecan-00122",13513530,"canterbury","ecan","upland","rural","7113720",-44.3387106103236,170.022382740223,"24-Jul-2020","T",505,"3","1"
"SQ10272","twizel river sh8 bridge","ecan-00005",13511793,"canterbury","ecan","upland","natural","7117100",-44.2584743150791,170.110539265833,"24-Jul-2020","T",457,"5","5"
"SQ10275","mary burn d/s sh8","ecan-00123",13510069,"canterbury","ecan","upland","rural","7118110",-44.1748838871789,170.323268662045,"24-Jul-2020","T",517,"4","4"
"SQ10301","otematata river sh83","ecan-00124",13519342,"canterbury","ecan","upland","rural","7110000",-44.6045386487108,170.202876326489,"24-Jul-2020","T",304.333333333333,"2","2&6"
"SQ20104","ashburton river at sh1","ecan-00014",13058824,"canterbury","ecan","lowland","urban","6880000",-43.9095209565713,171.738744417191,"24-Jul-2020","U",94.5,"2","2&6"
"SQ20207","south opuha river clayton road","lawa-100473",13060661,"canterbury","ecan","upland","rural","6960930",-43.9934268296413,170.846788917307,"24-Jul-2020","B",404,"4","1"
"SQ20232","opihi river at fairlie - sh79","ecan-00031",13062485,"canterbury","ecan","upland","rural","6960000",-44.0966091934989,170.834816706889,"24-Jul-2020","P",294,"5","5"
"SQ20243","opihi river sh1","ecan-00033",13064793,"canterbury","ecan","lowland","rural","6960000",-44.26306623174,171.26966722126,"24-Jul-2020","P",28,"7","6"
"SQ20250","temuka river sh1","ecan-10033",13064653,"canterbury","ecan","lowland","rural","6960200",-44.2537135132052,171.275748094616,"24-Jul-2020","P",12.5,"3","2&1"
"SQ20325","waihi river te awa road","lawa-100474",13064024,"canterbury","ecan","lowland","rural","6960250",-44.2113228445277,171.267251851222,"24-Jul-2020","P",29,"5","4&1"
"SQ20375","opuha river skipton bridge","nrwqn-00008",13062111,"canterbury","ecan","upland","rural","6960900",-44.0805796231422,170.978838558471,"24-Jul-2020","P",249.333333333333,"6","1&6"
"SQ20541","petries drain canal road","ecan-00182",13063742,"canterbury","ecan","lowland","rural","6950000",-44.2081917534209,171.379688390064,"24-Jul-2020","P",19,"1","1"
"SQ20549","rhodes stream rolleston road","lawa-100477",13063922,"canterbury","ecan","lowland","rural","6950200",-44.2073104671496,171.384279914981,"24-Jul-2020","P",19,"2","2"
"SQ21045","ohapi creek guild rd","ecan-00178",13064205,"canterbury","ecan","lowland","exotic","6950100",-44.2152131930692,171.32631762896,"24-Jul-2020","P",25,"3","3"
"SQ21046","ohapi creek south branch guild rd","ecan-00179",13064205,"canterbury","ecan","lowland","exotic","6950100",-44.2159607438904,171.325095232981,"24-Jul-2020","P",25,"3","3"
"SQ21047","ohapi creek upstream orari river confluence","ecan-00052",13064439,"canterbury","ecan","lowland","rural","6950000",-44.2399269167372,171.386471284131,"24-Jul-2020","P",5,"4","4"
"SQ21049","orakipaoa creek milford lagoon rd","ecan-00053",13064794,"canterbury","ecan","lowland","rural","6960100",-44.2639841523325,171.336934555297,"24-Jul-2020","P",4,"3","4"
"SQ21160","waikakahi stream cock & hen road","ecan-00054",13523026,"canterbury","ecan","lowland","rural","7110100",-44.871471120161,170.965024215105,"24-Jul-2020","P",70,"4","4"
"SQ21254","waikakahi stream te maiharoa road","ecan-00183",13523841,"canterbury","ecan","lowland","rural","7110000",-44.9163014487447,171.09499556633,"24-Jul-2020","P",30,"2","2"
"SQ21255","waikakahi stream old ferry road","lawa-100476",13523485,"canterbury","ecan","lowland","rural","7110100",-44.8904881714994,171.034245077109,"24-Jul-2020","P",48,"2","2"
"SQ21289","whitneys creek carrolls rd","ecan-00055",13069358,"canterbury","ecan","lowland","rural","7110150",-44.8990727578079,171.122406750752,"24-Jul-2020","P",26,"1","4"
"SQ21292","buchanans creek upstream confluence waihao river","ecan-00057",13068955,"canterbury","ecan","lowland","rural","7090110",-44.7753082562782,171.152927657569,"24-Jul-2020","P",6.5,"3","3&1"
"SQ21309","coopers creek sh72","ecan-00062",13060915,"canterbury","ecan","upland","exotic","6950300",-44.0155449931473,171.277695291966,"24-Jul-2020","P",176,"1","4"
"SQ23005","te ngawai river te ngawai road bridge","ecan-00040",13064501,"canterbury","ecan","lowland","rural","6960500",-44.2452220515561,171.116120305487,"24-Jul-2020","P",74,"2","5&2"
"SQ26171","station stream clayton rd","lawa-100463",13060249,"canterbury","ecan","upland","rural","6960940",-43.9714963468258,170.862409756107,"24-Jul-2020","P",399,"4","4"
"SQ35172","kahutara river at dairy farm rd","ecan-00160",13009520,"canterbury","ecan","lowland","rural","6340000",-42.4081575233949,173.541717802496,"24-Jul-2020","S",75,"5","5"
"SQ35180","birdlings brook lochheads rd","lawa-100467",13055096,"canterbury","ecan","lowland","rural","6832310",-43.7899220222372,172.31236785229,"24-Jul-2020","P",11.6666666666667,"4","4&1"
"SQ35874","gentleman smith stream at hakatere-heron road","ecan-00170",13046893,"canterbury","ecan","upland","rural","6881200",-43.5374144020876,171.184322593976,"24-Jul-2020","P",678,"3","3"
"SQ33899","okarahia stream u/s sh1","ecan-00154",13013190,"canterbury","ecan","lowland","natural","6400000",-42.5420066479243,173.450541729351,"24-Jul-2020","P",184,"2","2"
"SQ33962","waipara river at laidmore rd","ecan-00104",13029881,"canterbury","ecan","upland","rural","6590000",-43.0594437966749,172.589733664695,"24-Jul-2020","P",302,"6","6"
"SQ34191","taranaki creek u/s preeces rd","ecan-00106",13038414,"canterbury","ecan","lowland","rural","6620200",-43.3048006696495,172.688770481981,"24-Jul-2020","P",8,"3","3"
"SQ34412","warren creek u/s rorrisons road","ecan-00107",13009111,"canterbury","ecan","lowland","rural","6300000",-42.3919663301672,173.672956353846,"24-Jul-2020","P",8,"2","2"
"SQ34624","purau stream purau port levey road","lawa-100481",13049907,"canterbury","ecan","lowland","rural","6670800",-43.6443020613177,172.751974044837,"24-Jul-2020","P",19,"3","2"
"SQ36032","grey river mt grey road","lawa-100472",13033933,"canterbury","ecan","upland","rural","6620510",-43.1711061223119,172.488621843632,"24-Jul-2020","EF",312,"3","3"
"Aparima River at Thornbury","aparima river at thornbury","es-00072",15057386,"southland","es","lowland","rural","aparima river",-46.2859273277536,168.082923403251,"24-Jul-2020","P",16,"6","6"
"Oreti River at Wallacetown","oreti river at wallacetown","es-00112",15058642,"southland","es","lowland","rural","oreti river",-46.3263007993515,168.266192874427,"24-Jul-2020","P",7,"6","7"
"Otautau Stream at Otautau","otautau stream at otautau","es-00113",15052483,"southland","es","lowland","rural","aparima river",-46.14187450743,167.990825174332,"24-Jul-2020","P",56.75,"5","1&5"
"Waiau River at Sunnyside","waiau river at sunnyside","es-00121",15038276,"southland","es","lowland","native","waiau river",-45.7986974283497,167.640024852344,"24-Jul-2020","IF",202,"7","7"
"Waimea Stream at Mandeville","waimea stream at mandeville","es-00130",15044764,"southland","es","lowland","rural","mataura river",-45.9872387968892,168.801093080172,"24-Jul-2020","P",103,"5","5"
"Waimeamea River at Young Road","waimeamea river at young road","es-00131",15057136,"southland","es","lowland","native","waimeamea river",-46.2589619839688,167.740062416313,"24-Jul-2020","IF",34,"4","1&4"
"Waituna Creek at Marshall Road","waituna creek at marshall road","es-00135",15061706,"southland","es","lowland","rural","waituna creek",-46.5202487334586,168.542712519181,"24-Jul-2020","P",9.66666666666667,"4","4&1"
"Aparima River at Dunrobin","aparima river at dunrobin","es-00004",15034889,"southland","es","upland","native","aparima river",-45.737409990996,168.1203806593,"24-Jul-2020","IF",311.5,"5","1&5"
"Irthing Stream at Ellis Road","irthing stream at ellis road","es-00013",15031719,"southland","es","upland","rural","oreti river",-45.6796047663668,168.425875807601,"24-Jul-2020","P",218,"6","6"
"Mataura River at Gore","mataura river at gore","es-00037",15049205,"southland","es","lowland","urban","mataura river",-46.1002193469584,168.949448755793,"24-Jul-2020","P",74,"7","7"
"Mataura River at Parawa","mataura river at parawa","es-00024",15025929,"southland","es","upland","rural","mataura river",-45.5594017593903,168.561467430689,"24-Jul-2020","P",429.333333333333,"5","5&1"
"Orauea River at Orawia Pukemaori Road","orauea river at orawia pukemaori road","es-00061",15050335,"southland","es","lowland","rural","waiau river",-46.0772372324477,167.791628968043,"24-Jul-2020","P",57,"5","5"
"Oreti River at Three Kings","oreti river at three kings","es-00009",15021776,"southland","es","upland","rural","oreti river",-45.4471272879787,168.136247769802,"24-Jul-2020","T",486,"5","5"
"Otapiri Stream at Otapiri Gorge","otapiri stream at otapiri gorge","es-00046",15045776,"southland","es","lowland","rural","oreti river",-46.0005077984258,168.45767333948,"24-Jul-2020","P",137,"5","5"
"Bog Burn d/s Hundred Line Road","bog burn d/s hundred line road","es-00048",15048787,"southland","es","lowland","rural","oreti river",-46.0623949587389,168.234734679969,"24-Jul-2020","P",85,"4","4"
"Cascade Stream at Pourakino Valley Road","cascade stream at pourakino valley road","es-00006",15056487,"southland","es","lowland","native","aparima river",-46.249498924569,167.935858078261,"24-Jul-2020","IF",34,"4","4"
"Cromel Stream at Selbie Road","cromel stream at selbie road","es-00012",15027427,"southland","es","upland","native","oreti river",-45.5813773655988,168.37384442081,"24-Jul-2020","IF",323,"4","4"
"Dunsdale Stream at Dunsdale Reserve","dunsdale stream at dunsdale reserve","es-00016",15051163,"southland","es","lowland","native","oreti river",-46.1347057505432,168.601870071154,"24-Jul-2020","IF",161,"4","1&4"
"Hamilton Burn at Affleck Road","hamilton burn at affleck road","es-00164",15036486,"southland","es","upland","rural","aparima river",-45.7848090419463,168.191258548416,"24-Jul-2020","P",244,"5","5"
"Hedgehope Stream 20m u/s Makarewa Confl","hedgehope stream 20m u/s makarewa confl","es-00165",15056334,"southland","es","lowland","rural","oreti river",-46.2667698347913,168.453503410746,"24-Jul-2020","P",29,"5","6"
"Lill Burn at Lill Burn-Monowai Road","lill burn at lill burn-monowai road","es-00166",15047441,"southland","es","lowland","native","waiau river",-46.0024211861941,167.669296552426,"24-Jul-2020","IF",121.5,"5","5"
"Longridge Stream at Sandstone","longridge stream at sandstone","es-00065",15040065,"southland","es","upland","rural","mataura river",-45.8863808434473,168.60145273655,"24-Jul-2020","P",158,"4","4"
"Makarewa River at Lora Gorge Road","makarewa river at lora gorge road","es-00047",15048673,"southland","es","lowland","rural","oreti river",-46.0666514266213,168.482654787264,"24-Jul-2020","P",82,"4","5"
"Makarewa River at Wallacetown","makarewa river at wallacetown","es-00015",15058243,"southland","es","lowland","rural","oreti river",-46.3297954257162,168.299116272918,"24-Jul-2020","P",10.5,"6","1&7"
"Mararoa River at Weir Road","mararoa river at weir road","es-00002",15029370,"southland","es","upland","rural","waiau river",-45.6061614579925,167.702255644554,"24-Jul-2020","P",227,"6","6"
"Mataura River 200m d/s Mataura Bridge","mataura river 200m d/s mataura bridge","es-00022",15053378,"southland","es","lowland","rural","mataura river",-46.1985696291369,168.863521606528,"24-Jul-2020","P",54,"7","7"
"Mataura River at Mataura Island Bridge","mataura river at mataura island bridge","es-00021",15059279,"southland","es","lowland","rural","mataura river",-46.3890685346813,168.777560827914,"24-Jul-2020","P",18,"7","7"
"Mimihau Stream Tributary at Venlaw Forest","mimihau stream tributary at venlaw forest","es-00029",15056983,"southland","es","upland","forest","mataura river",-46.3096253091344,169.082228480021,"24-Jul-2020","EF",351,"2","3"
"Mimihau Stream at Wyndham","mimihau stream at wyndham","es-00044",15057605,"southland","es","lowland","rural","mataura river",-46.3211744547906,168.860121400877,"24-Jul-2020","P",32,"5","6"
"Mokoreta River at Wyndham River Road","mokoreta river at wyndham river road","es-00028",15058499,"southland","es","lowland","rural","mataura river",-46.3585169685426,168.843464801531,"24-Jul-2020","P",44,"5","5&1"
"Mokotua Stream at Awarua","mokotua stream at awarua","es-00054",15062054,"southland","es","lowland","rural","mokotua stream",-46.5421399463717,168.433873252685,"24-Jul-2020","W",9,"3","2&3&1"
"Oreti River at Lumsden Bridge","oreti river at lumsden bridge","es-00011",15033324,"southland","es","upland","rural","oreti river",-45.7162088027125,168.427766948936,"24-Jul-2020","P",213,"6","7"
"Otamita Stream at Mandeville","otamita stream at mandeville","es-00030",15045155,"southland","es","lowland","rural","mataura river",-45.9980415193623,168.824180709994,"24-Jul-2020","P",93.5,"5","5&2"
"Otautau Stream at Otautau-Tuatapere Road","otautau stream at otautau-tuatapere road","es-00008",15051985,"southland","es","lowland","rural","aparima river",-46.1266337620799,167.977089360567,"24-Jul-2020","P",68,"5","5"
"Otautau Stream at Waikouro","otautau stream at waikouro","es-00053",15050929,"southland","es","lowland","rural","aparima river",-46.0991876074267,167.962184806747,"24-Jul-2020","P",56,"4","4"
"Otepuni Creek at Nith Street","otepuni creek at nith street","es-00019",15060150,"southland","es","lowland","urban","waihopai stream",-46.414114105061,168.350410301998,"24-Jul-2020","U",9,"3","2"
"Oteramika Stream at Seaward Downs","oteramika stream at seaward downs","es-00036",15058925,"southland","es","lowland","rural","mataura river",-46.3828106047144,168.761227184044,"24-Jul-2020","P",29,"4","4"
"Sandstone Stream at Kingston Crossing Rd","sandstone stream at kingston crossing rd","es-00068",15042780,"southland","es","lowland","rural","mataura river",-45.9392403133049,168.729456510051,"24-Jul-2020","P",140,"3","3"
"Tokanui River at Fortrose Otara Road","tokanui river at fortrose otara road","es-00064",15062815,"southland","es","lowland","rural","tokanui river",-46.6214459867044,168.879668108632,"24-Jul-2020","P",19,"4","4"
"Upukerora River at Te Anau Milford Road","upukerora river at te anau milford road","es-00043",15020897,"southland","es","upland","native","waiau river",-45.4101606598051,167.74121317168,"24-Jul-2020","IF",226.5,"5","1&4"
"Waiau River at Tuatapere","waiau river at tuatapere","es-00001",15052505,"southland","es","lowland","rural","waiau river",-46.1307733359097,167.685996922745,"24-Jul-2020","IF",22,"7","7"
"Waihopai River u/s Queens Drive","waihopai river u/s queens drive","es-00018",15059564,"southland","es","lowland","rural","waihopai stream",-46.3847497460943,168.366722870716,"24-Jul-2020","P",9,"5","2"
"Waikaia River at Waikaia","waikaia river at waikaia","es-00042",15032882,"southland","es","upland","rural","mataura river",-45.7226284184622,168.841892089722,"24-Jul-2020","T",173,"6","6"
"Waikaia River at Waipounamu Bridge Road","waikaia river at waipounamu bridge road","es-00025",15038774,"southland","es","lowland","rural","mataura river",-45.8519215328535,168.792988864516,"24-Jul-2020","P",126,"6","6"
"Waikaia River u/s Piano Flat","waikaia river u/s piano flat","es-00026",15024871,"southland","es","upland","rural","mataura river",-45.5496419462252,169.02887492495,"24-Jul-2020","T",432,"5","5"
"Waikaka Stream at Gore","waikaka stream at gore","es-00027",15049464,"southland","es","lowland","rural","mataura river",-46.1074572965357,168.954301132957,"24-Jul-2020","P",124,"6","6"
"Waikawa River at Progress Valley","waikawa river at progress valley","es-00034",15062197,"southland","es","lowland","rural","waikawa river",-46.5742168489349,169.146731113072,"24-Jul-2020","P",16,"5","5&2"
"Waikiwi Stream at North Road","waikiwi stream at north road","es-00017",15058921,"southland","es","lowland","rural","oreti river",-46.3629448040163,168.34671453597,"24-Jul-2020","P",9.75,"5","4&5&1"
"Waikopikopiko Stream at Haldane CurioBay","waikopikopiko stream at haldane curiobay","es-00033",15062800,"southland","es","lowland","native","waikopikopiko stream",-46.629711242192,169.023215881862,"24-Jul-2020","IF",18,"4","4"
"Waimatuku Stream at Lorneville Riverton Hwy","waimatuku stream at lorneville riverton hwy","es-00035",15057733,"southland","es","lowland","rural","waimatuku stream",-46.2995424429551,168.172389275987,"24-Jul-2020","P",19,"5","5"
"Wairaki River at Blackmount Road","wairaki river at blackmount road","es-00167",15044418,"southland","es","lowland","rural","waiau river",-45.9348877203632,167.699734330932,"24-Jul-2020","P",100.5,"5","5&7"
"Whitestone River d/s Manapouri-Hillside","whitestone river d/s manapouri-hillside","es-00062",15026001,"southland","es","upland","rural","waiau river",-45.530665015226,167.754617897032,"24-Jul-2020","P",240,"5","5"
"Winton Stream at Lochiel","winton stream at lochiel","es-00014",15054215,"southland","es","lowland","rural","oreti river",-46.1994833846124,168.303033200888,"24-Jul-2020","P",34,"4","4"
"Aparima River at Otautau","aparima river at otautau","es-00040",15051903,"southland","es","lowland","rural","aparima river",-46.1327011904303,168.000036034437,"24-Jul-2020","P",59.8571428571429,"6","6&1"
"Eglington River at McKay Creek Confluence","eglington river at mckay creek confluence","lawa-100168",15009956,"southland","es","upland","native","waiau river",-45.0653652249383,167.988279108182,"24-Jul-2020","IF",293,"5","5"
"Hamilton Burn at Goodall Road","hamilton burn at goodall road","lawa-100169",15033481,"southland","es","upland","rural","aparima river",-45.7088177046552,168.153428817322,"24-Jul-2020","P",298,"5","1"
"Hedgehope Stream at Block Road","hedgehope stream at block road","lawa-100170",15054283,"southland","es","lowland","rural","oreti river",-46.2119634599362,168.54804591368,"24-Jul-2020","P",38,"5","5"
"Hillpoint Stream at Waikana Road","hillpoint stream at waikana road","lawa-100171",15043939,"southland","es","upland","rural","aparima river",-45.9436272870707,168.164546088562,"24-Jul-2020","P",272.25,"3","3&1"
"Home Creek at Manapouri","home creek at manapouri","lawa-100172",15028148,"southland","es","upland","rural","waiau river",-45.564242968548,167.632711996944,"24-Jul-2020","P",200,"4","4"
"Lill Burn at Hindley Road","lill burn at hindley road","lawa-100173",15047255,"southland","es","lowland","native","waiau river",-45.993468858518,167.540672716654,"24-Jul-2020","IF",181,"5","5"
"Makarewa River at King Road","makarewa river at king road","lawa-100174",15050267,"southland","es","lowland","rural","oreti river",-46.1043476928819,168.490362704306,"24-Jul-2020","P",103,"4","5"
"Makarewa River at Winton - Hedgehope Hwy","makarewa river at winton - hedgehope hwy","lawa-100175",15054308,"southland","es","lowland","rural","oreti river",-46.2145928335753,168.498521815345,"24-Jul-2020","P",38.5,"6","6"
"Makarewa River u/s Hedgehope Confluence","makarewa river u/s hedgehope confluence","lawa-100176",15056020,"southland","es","lowland","rural","oreti river",-46.2635985511734,168.452753835421,"24-Jul-2020","P",27,"6","7"
"Mararoa River at Kiwiburn","mararoa river at kiwiburn","lawa-100177",15017572,"southland","es","upland","rural","waiau river",-45.3489059670365,168.126061469392,"24-Jul-2020","T",555.5,"5","5"
"Mataura River at Garston","mataura river at garston","es-00038",15021648,"southland","es","upland","rural","mataura river",-45.4628138280563,168.683824136677,"24-Jul-2020","T",314,"5","5"
"Mataura River at Keowns Road Bridge","mataura river at keowns road bridge","lawa-100178",15036568,"southland","es","upland","rural","mataura river",-45.8021511676256,168.652525194834,"24-Jul-2020","P",179,"6","6"
"Mataura River at Pyramid Bridge","mataura river at pyramid bridge","lawa-100179",15041362,"southland","es","lowland","rural","mataura river",-45.9116949796107,168.813921776658,"24-Jul-2020","P",170,"7","7"
"McKay Creek at Milford Road","mckay creek at milford road","lawa-100181",15009933,"southland","es","upland","native","waiau river",-45.0646826409582,167.993432530832,"24-Jul-2020","IF",520.5,"3","3&2"
"Mokoreta River at Egremont Road","mokoreta river at egremont road","lawa-100184",15058365,"southland","es","lowland","rural","mataura river",-46.3627528533851,169.151713966961,"24-Jul-2020","P",147,"2","2"
"North Etal Stream u/s Dunrobin Valley Rd","north etal stream u/s dunrobin valley rd","lawa-100185",15035470,"southland","es","upland","rural","aparima river",-45.748722048527,168.030314615309,"24-Jul-2020","P",520,"3","1"
"Oreti River at Benmore","oreti river at benmore","lawa-100186",15043359,"southland","es","lowland","rural","oreti river",-45.9519463769244,168.325608749176,"24-Jul-2020","P",108.333333333333,"6","7&1"
"Oreti River at McKellars Flat","oreti river at mckellars flat","lawa-100187",15016481,"southland","es","upland","rural","oreti river",-45.3279825647954,168.208334145017,"24-Jul-2020","P",595,"1","2"
"Otapiri Stream at Anderson Road","otapiri stream at anderson road","lawa-100190",15051875,"southland","es","lowland","rural","oreti river",-46.1465755474191,168.487025039856,"24-Jul-2020","P",47.5,"5","5"
"Pig Creek at Borland Lodge","pig creek at borland lodge","lawa-100191",15037518,"southland","es","upland","native","waiau river",-45.7752235593415,167.533244518702,"24-Jul-2020","IF",224.2,"4","4&1"
"Pourakino River at Ermedale Road","pourakino river at ermedale road","es-00007",15056201,"southland","es","lowland","native","aparima river",-46.2405659840732,167.958736314117,"24-Jul-2020","IF",27,"4","4"
"Pourakino River at Jubilee Hill Road","pourakino river at jubilee hill road","lawa-100192",15054650,"southland","es","lowland","native","aparima river",-46.1956255878588,167.919887695107,"24-Jul-2020","IF",76,"4","4"
"Rowallan Burn East at Rowallan Road","rowallan burn east at rowallan road","lawa-100193",15053145,"southland","es","lowland","native","waiau river",-46.1388521795938,167.519570683699,"24-Jul-2020","IF",30.5,"4","4"
"Silver Stream at Lora Gorge Road","silver stream at lora gorge road","lawa-100194",15048404,"southland","es","lowland","rural","oreti river",-46.0651225249199,168.477917630687,"24-Jul-2020","P",121,"2","2"
"Taringatura Creek at Taromaunga","taringatura creek at taromaunga","lawa-100195",15039604,"southland","es","upland","rural","aparima river",-45.8501522848173,168.149215275531,"24-Jul-2020","P",219,"3","3"
"Thicket Burn at Lake Hauroko Road","thicket burn at lake hauroko road","lawa-100196",15047979,"southland","es","lowland","native","waiau river",-46.0068666364181,167.454064612886,"24-Jul-2020","IF",149,"3","3"
"Trenders Creek at Hall Road","trenders creek at hall road","lawa-100198",15048790,"southland","es","lowland","rural","oreti river",-46.071295613488,168.52144801634,"24-Jul-2020","P",149.5,"4","4&3"
"Waianiwa Creek 1 at Lornville Riverton Highway","waianiwa creek 1 at lornville riverton highway","lawa-100199",15057975,"southland","es","lowland","rural","oreti river",-46.3163052518484,168.242075575188,"24-Jul-2020","P",18,"4","4"
"Waiau River 100m u/s Clifden Bridge","waiau river 100m u/s clifden bridge","lawa-100200",15048468,"southland","es","lowland","native","waiau river",-46.0299493906132,167.719784575101,"24-Jul-2020","IF",58.3333333333333,"7","7&1"
"Waimatuku Stream at Rance Rd","waimatuku stream at rance rd","lawa-100201",15058867,"southland","es","lowland","rural","waimatuku stream",-46.3468020962483,168.152076949032,"24-Jul-2020","P",4,"5","2"
"Winton Stream at Benmore - Otapiri Road","winton stream at benmore - otapiri road","lawa-100202",15044613,"southland","es","lowland","rural","oreti river",-45.9742787697396,168.366186948626,"24-Jul-2020","P",118,"3","4"
"Moffat Creek at Moffat Road","moffat creek at moffat road","es-00106",15062000,"southland","es","lowland","rural","waituna creek",-46.5401704522622,168.57029804379,"24-Jul-2020","P",9,"3","3"
"Dipton Stream at South Hillend-Dipton Rd","dipton stream at south hillend-dipton rd","es-00163",15046191,"southland","es","lowland","rural","oreti river",-45.9827622824049,168.312332032032,"24-Jul-2020","B",843.5,"2","2"
"Hikuwai River at Willowflat","hikuwai river at willowflat","gdc-00004",5007406,"gisborne","gdc","lowland","rural","uawa river",-38.29225747,178.26918382,"24-Jul-2020","P",134.333333333333,"5","6&1"
"Mangatu River at Omapere Station","mangatu river at omapere station","gdc-00010",5008473,"gisborne","gdc","lowland","rural","waipaoa",-38.37861727,177.79314223,"24-Jul-2020","P",186.5,"5","5&4"
"Te Arai River at Pykes Weir","te arai river at pykes weir","gdc-00017",5013661,"gisborne","gdc","lowland","rural","waipaoa",-38.7594811,177.81765186,"24-Jul-2020","P",50,"4","4"
"Waihuka River at No3 Br","waihuka river at no3 br","lawa-100715",5010037,"gisborne","gdc","unstated","unstated","waipaoa",-38.4631994,177.73397943,"24-Jul-2020","P",238,"4","4"
"Waikohu River at Mahaki Station","waikohu river at mahaki station","gdc-00021",5009510,"gisborne","gdc","lowland","rural","waipaoa",-38.42684599,177.7223845,"24-Jul-2020","P",183.5,"5","5"
"Waikohu River at No3 Br","waikohu river at no3 br","lawa-100378",5011693,"gisborne","gdc","unstated","unstated","waipaoa",-38.45482923,177.77989206,"24-Jul-2020","P",125,"5","6"
"Waimata River at Goodwins Rd Bridge","waimata river at goodwins rd bridge","gdc-00022",5013068,"gisborne","gdc","lowland","rural","waimata river",-38.63968344,178.06823401,"24-Jul-2020","P",16,"5","5"
"Waimata River at Monowai Bridge","waimata river at monowai bridge","gdc-00023",5011334,"gisborne","gdc","lowland","rural","waimata river",-38.51418655,178.04028432,"24-Jul-2020","P",77,"5","5"
"Waingaromia River at Terrace Station","waingaromia river at terrace station","gdc-00024",5008416,"gisborne","gdc","lowland","rural","waipaoa",-38.359148,177.93349507,"24-Jul-2020","EF",298,"5","5"
"Waipaoa River at Kanakanaia","waipaoa river at kanakanaia","gdc-00027",5010311,"gisborne","gdc","lowland","rural","waipaoa",-38.46156491,177.8766788,"24-Jul-2020","P",145,"1","7"
"Waipaoa River at Matawhero Bridge","waipaoa river at matawhero bridge","gdc-00028",5007146,"gisborne","gdc","lowland","rural","waipaoa",-38.65370647,177.91769479,"24-Jul-2020","EF",173,"5","6"
"Wharekopae River at Rangimoe","wharekopae river at rangimoe","gdc-00030",5011693,"gisborne","gdc","lowland","rural","waipaoa",-38.54675218,177.65955182,"24-Jul-2020","P",125,"5","6"
"Mangaheia River at Paroa Road Bridge","mangaheia river at paroa road bridge","gdc-00008",5008439,"gisborne","gdc","lowland","rural","uawa river",-38.34737089,178.24910813,"24-Jul-2020","P",41,"5","1&5"
"Taruheru River at Tuckers Rd Bridge","taruheru river at tuckers rd bridge","gdc-00016",5012981,"gisborne","gdc","lowland","rural","taruheru river",-38.63415353,177.96817629,"24-Jul-2020","P",-7.225486397745,"4","2&4"
"Awatere River at SH35 Bridge","awatere river at sh35 bridge","gdc-00002",5000717,"gisborne","gdc","lowland","rural","awatere river",-37.67457224,178.34813828,"24-Jul-2020","EF",62.5,"5","5&1"
"Ihungia River at Ihungia Rd Br","ihungia river at ihungia rd br","gdc-00005",5004508,"gisborne","gdc","unstated","exotic","waiapu",-38.04691689,178.1766513,"24-Jul-2020","P",220,"5","5"
"Karakatuwhero River at SH35 Br","karakatuwhero river at sh35 br","gdc-00006",5000331,"gisborne","gdc","lowland","rural","karakatuwhero river",-37.62563187,178.33460144,"24-Jul-2020","IF",1,"4","4"
"Motu River at Kotare Station Bridge","motu river at kotare station bridge","lawa-100330",4020959,"gisborne","gdc","upland","rural","motu river",-38.36155298,177.49807902,"24-Jul-2020","P",539,"5","5"
"Hikuwai River at No 4 Bridge","hikuwai river at no 4 bridge","gdc-00003",5006266,"gisborne","gdc","lowland","rural","uawa river",-38.20389326,178.25582994,"24-Jul-2020","P",42.5,"5","1&6"
"Mangaoporo River at Tutumatai Bridge","mangaoporo river at tutumatai bridge","gdc-00009",5002342,"gisborne","gdc","lowland","rural","waiapu",-37.83774273,178.29385929,"24-Jul-2020","P",302,"4","4"
"Mangatutu Str at Sh35-Waipahuru Bridge","mangatutu str at sh35-waipahuru bridge","lawa-100336",5000205,"gisborne","gdc","lowland","rural","wharekahika river",-37.59944782,178.26023485,"24-Jul-2020","IF",198,"3","3"
"Mata River at Aorangi (Makarika Road)","mata river at aorangi (makarika road)","gdc-00011",5003470,"gisborne","gdc","lowland","rural","waiapu",-37.94877976,178.21088895,"24-Jul-2020","P",200,"1","1"
"Mata River at Pouturu Br","mata river at pouturu br","lawa-100348",5004528,"gisborne","gdc","upland","exotic","waiapu",-38.04748307,178.12338148,"24-Jul-2020","P",352,"2","2&1"
"Matawai Stream at Tawai","matawai stream at tawai","lawa-100332",4021512,"gisborne","gdc","upland","rural","motu river",-38.38021422,177.55207132,"24-Jul-2020","P",581,"2","2"
"Oweka River at SH35 Bridge","oweka river at sh35 bridge","gdc-00013",5000164,"gisborne","gdc","lowland","rural","wharekahika river",-37.5927497,178.15253622,"24-Jul-2020","S",54,"1","4"
"Poroporo River at Rangitukia Rd Bridge","poroporo river at rangitukia rd bridge","gdc-00015",5001815,"gisborne","gdc","lowland","rural","poroporo river",-37.78527353,178.42755259,"24-Jul-2020","P",55,"4","1&4&6"
"Waiomoko River at SH35 Bridge","waiomoko river at sh35 bridge","lawa-100335",5012237,"gisborne","gdc","lowland","rural","pakarae river",-38.55581647,178.21529022,"24-Jul-2020","P",26,"2","2"
"Whakaahu Str at Brunton Rd","whakaahu str at brunton rd","gdc-00031",5012901,"gisborne","gdc","lowland","rural","waipaoa",-38.63111823,177.85760067,"24-Jul-2020","P",60.0718193054,"4","5"
"Wharekahika River U/S of Wharf Bridge","wharekahika river u/s of wharf bridge","gdc-00029",5000078,"gisborne","gdc","lowland","rural","wharekahika river",-37.57137121,178.28161313,"24-Jul-2020","S",101.5,"1","1&5"
"Motu River at Matawai Conservation Area","motu river at matawai conservation area","lawa-100329",4022425,"gisborne","gdc","upland","native","motu river",-38.42453214,177.46114325,"24-Jul-2020","IF",601,"3","4"
"Pakarae River at Pakarae Station Bridge","pakarae river at pakarae station bridge","gdc-00014",5011612,"gisborne","gdc","lowland","rural","pakarae river",-38.51508062,178.25492637,"24-Jul-2020","P",142,"5","5"
"Motu River above Falls","motu river above falls","lawa-100331",4018080,"gisborne","gdc","upland","rural","motu river",-38.24861874,177.59480185,"24-Jul-2020","P",594.333333333333,"5","5&1"
"Waihirere Str at Domain","waihirere str at domain","lawa-100333",5012154,"gisborne","gdc","lowland","native","taruheru river",-38.57138316,177.94697884,"24-Jul-2020","P",99.4360198975,"2","2"
"Te Arai River at DW Bush Intake Above Weir","te arai river at dw bush intake above weir","lawa-100707",5013970,"gisborne","gdc","unstated","unstated","waipaoa",-38.82579843,177.7891019,"24-Jul-2020","IF",246,"3","3"
"Kopuapunamu Str Trib at Te Araroa","kopuapunamu str trib at te araroa","lawa-100688",5000828,"gisborne","gdc","unstated","unstated","awatere river",-37.69100687,178.30353714,"24-Jul-2020","P",79,"2","4"
"Waipaoa Trib at Lavenham-Humphrey Rd","waipaoa trib at lavenham-humphrey rd","lawa-100722",5011577,"gisborne","gdc","unstated","unstated","waipaoa",-38.52789081,177.88860255,"24-Jul-2020","P",49,"3","3&1"
"Parihihonou Str at SH2 Overbridge","parihihonou str at sh2 overbridge","lawa-100705",5009837,"gisborne","gdc","unstated","unstated","waipaoa",-38.44658397,177.62214861,"24-Jul-2020","P",315,"3","3"
"Mangatu Trib","mangatu trib","lawa-100700",5004027,"gisborne","gdc","unstated","unstated","waipaoa",-38.27244848,177.7860706,"24-Jul-2020","P",249,"2","1"
"Huitatariki Str","huitatariki str","lawa-100685",5004027,"gisborne","gdc","unstated","unstated","waiapu",-37.83634834,178.02153182,"24-Jul-2020","P",462,"2","3"
"Kouetumara Str at Ihungia Rd","kouetumara str at ihungia rd","lawa-100691",5004452,"gisborne","gdc","unstated","unstated","waiapu",-38.04013953,178.17618423,"24-Jul-2020","EF",328,"2","2&1&5"
"Makokomuka Str at Waiapu Rd","makokomuka str at waiapu rd","lawa-100695",5005798,"gisborne","gdc","unstated","unstated","uawa river",-38.15966586,178.27848434,"24-Jul-2020","P",143,"2","2"
"Anaura Str at Anaura Bay Rd","anaura str at anaura bay rd","lawa-100683",5006533,"gisborne","gdc","unstated","unstated","uawa river",-38.22113999,178.32108844,"24-Jul-2020","P",63,"2","1"
"Waipaoa at Armstrong Rd","waipaoa at armstrong rd","lawa-100721",5007133,"gisborne","gdc","unstated","unstated","waipaoa",-38.28339848,177.8508259,"24-Jul-2020","EF",214,"5","3"
"Whakauranga Br at West Ho Rd","whakauranga br at west ho rd","lawa-100728",5008749,"gisborne","gdc","unstated","unstated","pakarae river",-38.36800718,178.13085103,"24-Jul-2020","EF",326,"4","4"
"Waikohu Rv at Oliver Rd","waikohu rv at oliver rd","lawa-100718",5009245,"gisborne","gdc","unstated","unstated","waipaoa",-38.41968294,177.58535657,"24-Jul-2020","P",515,"4","2"
"Kaitawa Str at Wharf Rd","kaitawa str at wharf rd","lawa-100686",5009273,"gisborne","gdc","unstated","unstated","uawa river",-38.3888206,178.31294624,"24-Jul-2020","P",11,"4","4"
"Kurunui Str at Holdsworth Br SH2","kurunui str at holdsworth br sh2","lawa-100692",5010213,"gisborne","gdc","unstated","unstated","waipaoa",-38.46034475,177.7986844,"24-Jul-2020","P",59,"3","3"
"Waihuka at No2 Br","waihuka at no2 br","lawa-100714",5010234,"gisborne","gdc","unstated","unstated","waipaoa",-38.46480482,177.7792806,"24-Jul-2020","P",183.5,"4","4&2"
"Mangaoai Str at Mangaoai Rd","mangaoai str at mangaoai rd","lawa-100697",5010227,"gisborne","gdc","unstated","unstated","waipaoa",-38.45722274,177.91263098,"24-Jul-2020","P",108.5,"4","4"
"Te Arai Trib at Waingake Rd","te arai trib at waingake rd","lawa-100709",5013728,"gisborne","gdc","unstated","unstated","waipaoa",-38.77488137,177.79947965,"24-Jul-2020","P",148,"3","3"
"Pakarae trib Stevens Road","pakarae trib stevens road","lawa-100706",5010957,"gisborne","gdc","unstated","unstated","pakarae river",-38.48159723,178.19633769,"24-Jul-2020","P",100,"3","2"
"Wharekopae above falls","wharekopae above falls","lawa-100729",5011460,"gisborne","gdc","unstated","unstated","waipaoa",-38.50632205,177.60698243,"24-Jul-2020","P",207,"4","4"
"Waikakariki Trib at Quarry","waikakariki trib at quarry","lawa-100716",5012934,"gisborne","gdc","unstated","unstated","waipaoa",-38.63732578,177.82648248,"24-Jul-2020","EF",120,"2","1"
"Maraetaha Str at No2 Br","maraetaha str at no2 br","lawa-100701",5013919,"gisborne","gdc","unstated","unstated","pakarae river",-38.80150493,177.90406511,"24-Jul-2020","P",31,"4","4"
"Haupapa Str at Tahora Settlement Rd","haupapa str at tahora settlement rd","lawa-100684",8000213,"gisborne","gdc","unstated","unstated","waipaoa",-38.53851157,177.4251434,"24-Jul-2020","P",525,"3","3"
"Mangaotara Str at Tiniroto Rd","mangaotara str at tiniroto rd","lawa-100699",8005201,"gisborne","gdc","unstated","unstated","waipaoa",-38.80467052,177.538154,"24-Jul-2020","P",148.5,"4","4"
"Upper Motu Trib at Mangatu","upper motu trib at mangatu","lawa-100711",4016697,"gisborne","gdc","unstated","unstated","motu river",-38.20033265,177.62175054,"24-Jul-2020","IF",572,"1","5"
"Marumoko Str at Marumoko Rd","marumoko str at marumoko rd","lawa-100702",4017136,"gisborne","gdc","unstated","unstated","motu river",-38.21729822,177.58948273,"24-Jul-2020","P",594.333333333333,"2","2&1&3"
"Pakarae Trib at Whangara Rd","pakarae trib at whangara rd","lawa-100703",5010778,"gisborne","gdc","unstated","unstated","pakarae river",-38.4731938,178.24656182,"24-Jul-2020","P",59,"2","2"
"Koranga Trib at Rakauroa Rd","koranga trib at rakauroa rd","lawa-100690",4023547,"gisborne","gdc","unstated","unstated","waipaoa",-38.47586173,177.45110184,"24-Jul-2020","S",579,"2","3"
"Lottin Point Road Stream","lottin point road stream","lawa-100693",5000007,"gisborne","gdc","unstated","unstated","wharekahika river",-37.56018449,178.15576114,"24-Jul-2020","P",119,"2","2"
"Karakatuwhero Trib at Karakatuwhero Rd","karakatuwhero trib at karakatuwhero rd","lawa-100687",5000480,"gisborne","gdc","unstated","unstated","karakatuwhero river",-37.64789575,178.31714079,"24-Jul-2020","P",70,"3","1"
"Waitekaha Str at Tuparoa Rd","waitekaha str at tuparoa rd","lawa-100725",5011389,"gisborne","gdc","unstated","unstated","waiapu",-37.9105558,178.37897583,"24-Jul-2020","P",93,"3","3"
"Mangaoparo River at Mangaoparo Road","mangaoparo river at mangaoparo road","lawa-100698",5001931,"gisborne","gdc","unstated","unstated","waiapu",-37.80685532,178.24600492,"24-Jul-2020","IF",166,"4","4"
"Waipaoa Trib at Pipiwhakao Road","waipaoa trib at pipiwhakao road","lawa-100723",5013062,"gisborne","gdc","unstated","unstated","waipaoa",-38.65311955,177.89567564,"24-Jul-2020","P",21.33422295252,"3","3&1"
"Te Arai Trib at Waugh Rd","te arai trib at waugh rd","lawa-100710",5013535,"gisborne","gdc","unstated","unstated","waipaoa",-38.73496413,177.83910908,"24-Jul-2020","P",96,"2","2"
"Te Arai Rv at Waingake","te arai rv at waingake","lawa-100708",5013823,"gisborne","gdc","unstated","unstated","waipaoa",-38.79098526,177.79042511,"24-Jul-2020","P",125,"3","3"
"Mangakino Str at Mangatokerau Rd","mangakino str at mangatokerau rd","lawa-100696",5007596,"gisborne","gdc","unstated","unstated","uawa river",-38.29550235,178.2510825,"24-Jul-2020","EF",148,"2","2"
"Koranga Rv at Koranga Valley Rd","koranga rv at koranga valley rd","lawa-100689",4023121,"gisborne","gdc","unstated","unstated","wairoa river",-38.46162707,177.42061581,"24-Jul-2020","P",573,"3","4"
"Papokeka Str at Pehiri","papokeka str at pehiri","lawa-100704",8000704,"gisborne","gdc","unstated","unstated","wairoa river",-38.58728624,177.53669868,"24-Jul-2020","P",426,"3","3"
"Whakarau Trib at Whakarau Rd","whakarau trib at whakarau rd","lawa-100727",4019979,"gisborne","gdc","unstated","unstated","motu river",-38.31341981,177.56867538,"24-Jul-2020","P",611,"2","2"
"Waipiro Str at Te Puia","waipiro str at te puia","lawa-100724",5004307,"gisborne","gdc","unstated","unstated","waiapu",-38.01944188,178.33027212,"24-Jul-2020","P",42,"3","3"
"Wainui Str at Heath Johnston Park","wainui str at heath johnston park","lawa-100719",5013293,"gisborne","gdc","unstated","unstated","wainui stream",-38.68397045,178.05525898,"24-Jul-2020","U",105,"1","2"
"Waiapu River at Rotokautuku Br (SH35)","waiapu river at rotokautuku br (sh35)","gdc-00018",5002964,"gisborne","gdc","lowland","rural","waiapu",-37.8944444,178.29512263,"24-Jul-2020","P",79.5,"6","6&2"
"Makahakaha Stream","makahakaha stream","lawa-100694",5012486,"gisborne","gdc","unstated","unstated","waimata river",-38.5789788,178.07193769,"24-Jul-2020","EF",145,"2","1&3"
"Mangaehu Stream at Marshall road","mangaehu stream at marshall road","lawa-102229",5011389,"gisborne","gdc","unstated","unstated","waimata river",-38.51465036,178.03098788,"24-Jul-2020","P",93,"3","3"
"Makarika Str at Keelan Rd","makarika str at keelan rd","lawa-102228",5003964,"gisborne","gdc","unstated","unstated","waiapu",-37.99748578,178.21808615,"24-Jul-2020","P",173.333333333333,"4","1&4"
"Mangaokura Stream","mangaokura stream","lawa-102230",5003986,"gisborne","gdc","unstated","unstated","waiapu",-38.00536441,177.96353402,"24-Jul-2020","IF",884,"1","1"
"Mata Upper","mata upper","lawa-102231",5004788,"gisborne","gdc","unstated","unstated","waiapu",-38.08468618,177.87967645,"24-Jul-2020","IF",897,"2","3"
"Waiau River at Tauwhareparae","waiau river at tauwhareparae","lawa-102233",5006389,"gisborne","gdc","unstated","unstated","uawa river",-38.2169287,178.1275571,"24-Jul-2020","EF",212,"4","5"
"Akatarawa River at Hutt Confluence","akatarawa river at hutt confluence","gw-00025",9009342,"wellington","gwrc","lowland","forest","hutt river",-41.08952998,175.09766097,"24-Jul-2020","IF",97,"5","5"
"Awhea River at Tora Rd","awhea river at tora rd","gw-00053",9017635,"wellington","gwrc","lowland","rural","awhea river",-41.4945283,175.515193,"24-Jul-2020","P",131,"5","5&1"
"Beef Creek at headwaters","beef creek at headwaters","gw-00049",9007633,"wellington","gwrc","unstated","unstated","ruamahanga river",-41.01810983,175.4257619,"24-Jul-2020","S",264.5,"2","1&2"
"Horokiri Stream at Snodgrass","horokiri stream at snodgrass","gw-00013",9009035,"wellington","gwrc","lowland","rural","horokiri stream",-41.07930266,174.92617299,"24-Jul-2020","P",36,"4","4"
"Huangarua River at Ponatahi Bridge","huangarua river at ponatahi bridge","gw-00051",9012636,"wellington","gwrc","lowland","rural","ruamahanga river",-41.20800072,175.46909416,"24-Jul-2020","P",29,"6","6"
"Hutt River at Boulcott","hutt river at boulcott","gw-00022",9012031,"wellington","gwrc","lowland","forest","hutt river",-41.19670926,174.92047746,"24-Jul-2020","IF",63,"6","1&6"
"Hutt River at Te Marua Intake Site","hutt river at te marua intake site","gw-00020",9009042,"wellington","gwrc","lowland","forest","hutt river",-41.07991041,175.14363637,"24-Jul-2020","IF",138,"5","5"
"Hutt River Opposite Manor Park Golf Club","hutt river opposite manor park golf club","gw-00021",9010876,"wellington","gwrc","lowland","forest","hutt river",-41.15364323,174.98644435,"24-Jul-2020","IF",58,"6","4"
"Kaiwharawhara Stream at Ngaio Gorge","kaiwharawhara stream at ngaio gorge","gw-00019",9013489,"wellington","gwrc","lowland","urban","kaiwharawhara stream",-41.25798289,174.77940709,"24-Jul-2020","U",244,"4","4"
"Karori Stream at Makara Peak Mountain Bike Park","karori stream at makara peak mountain bike park","gw-00018",9014420,"wellington","gwrc","lowland","urban","karori stream",-41.29542655,174.72253616,"24-Jul-2020","U",135,"3","3"
"Kopuaranga River at Stuarts","kopuaranga river at stuarts","gw-00038",9004627,"wellington","gwrc","lowland","rural","ruamahanga river",-40.89357041,175.69179599,"24-Jul-2020","P",141,"5","5"
"Makara Stream at Kennels","makara stream at kennels","gw-00017",9012604,"wellington","gwrc","lowland","rural","makara stream",-41.23595385,174.71271629,"24-Jul-2020","P",75.5,"5","1&4"
"Mangaone Stream at Sims Road Bridge","mangaone stream at sims road bridge","gw-00007",9001470,"wellington","gwrc","lowland","rural","mangaone stream",-40.79042456,175.0889146,"24-Jul-2020","P",5,"4","2"
"Mangapouri Stream at Bennetts Rd","mangapouri stream at bennetts rd","gw-00002",9000495,"wellington","gwrc","lowland","urban","waitohu stream",-40.74299396,175.14078335,"24-Jul-2020","U",21,"2","2"
"Mangaroa River at Te Marua","mangaroa river at te marua","gw-00024",9009586,"wellington","gwrc","lowland","rural","hutt river",-41.09432204,175.1280911,"24-Jul-2020","P",164,"4","3"
"Mangatarere River at State Highway 2","mangatarere river at state highway 2","gw-00050",9008718,"wellington","gwrc","lowland","rural","ruamahanga river",-41.05477704,175.49618121,"24-Jul-2020","P",56,"4","4"
"Motuwaireka Stream at headwaters","motuwaireka stream at headwaters","gw-00043",9009224,"wellington","gwrc","lowland","forest","motuwaireka stream",-41.05951154,175.99910137,"24-Jul-2020","S",207,"2","2"
"Ngarara Stream at Field Way","ngarara stream at field way","gw-00008",9003353,"wellington","gwrc","lowland","urban","ngarara stream",-40.86160905,175.03109239,"24-Jul-2020","P",5,"3","4"
"Orongorongo River at Orongorongo Station","orongorongo river at orongorongo station","gw-00030",9016841,"wellington","gwrc","lowland","forest","orongorongo river",-41.41800038,174.90176106,"24-Jul-2020","IF",7,"4","4"
"Otaki River at Mouth","otaki river at mouth","gw-00006",9000731,"wellington","gwrc","lowland","forest","otaki river",-40.75873884,175.1085342,"24-Jul-2020","IF",4,"6","3"
"Otaki River at Pukehinau","otaki river at pukehinau","gw-00005",9002382,"wellington","gwrc","lowland","forest","otaki river",-40.8220466,175.19957526,"24-Jul-2020","IF",64,"6","6"
"Pakuratahi River 50m Below Farm Creek","pakuratahi river 50m below farm creek","gw-00023",9008887,"wellington","gwrc","lowland","forest","hutt river",-41.0652202,175.19714172,"24-Jul-2020","IF",297.5,"4","4&3"
"Parkvale Stream at Renalls Weir","parkvale stream at renalls weir","gw-00046",9009215,"wellington","gwrc","lowland","rural","ruamahanga river",-41.07801993,175.54166084,"24-Jul-2020","P",58,"4","4"
"Parkvale tributary at Lowes Reserve","parkvale tributary at lowes reserve","gw-00045",9007329,"wellington","gwrc","lowland","rural","ruamahanga river",-40.99686768,175.59297497,"24-Jul-2020","P",106,"1","1"
"Pauatahanui Stream at Elmwood Bridge","pauatahanui stream at elmwood bridge","gw-00014",9010034,"wellington","gwrc","lowland","rural","pauatahanui stream",-41.11427573,174.91877486,"24-Jul-2020","P",36.5,"4","4&1"
"Porirua Stream at Glenside Overhead Cables","porirua stream at glenside overhead cable","gw-00015",9011723,"wellington","gwrc","lowland","urban","porirua stream",-41.19158653,174.82792762,"24-Jul-2020","U",78,"4","4"
"Porirua Stream at Milk Depot","porirua stream at wall park","gw-00016",9010816,"wellington","gwrc","lowland","urban","porirua stream",-41.14936353,174.83958812,"24-Jul-2020","U",23,"4","4"
"Ruamahanga River at Gladstone Bridge","ruamahanga river at gladstone bridge","gw-00033",9009060,"wellington","gwrc","lowland","rural","ruamahanga river",-41.07237221,175.62913522,"24-Jul-2020","P",60,"6","7"
"Ruamahanga River at McLays","ruamahanga river at mclays","gw-00031",9000758,"wellington","gwrc","upland","forest","ruamahanga river",-40.74966737,175.58256015,"24-Jul-2020","IF",438.5,"4","4&1"
"Ruamahanga River at Pukio","ruamahanga river at pukio","gw-00034",9013512,"wellington","gwrc","lowland","rural","ruamahanga river",-41.24812292,175.36108795,"24-Jul-2020","P",11,"7","7"
"Ruamahanga River at Te Ore Ore","ruamahanga river at te ore ore","gw-00032",9006280,"wellington","gwrc","lowland","rural","ruamahanga river",-40.95283816,175.68011378,"24-Jul-2020","P",108.11000061,"5","5"
"Tauanui River at Whakatomotomo Rd","tauanui river at whakatomotomo rd","gw-00052",9016703,"wellington","gwrc","upland","forest","ruamahanga river",-41.39831365,175.28058743,"24-Jul-2020","IF",365,"3","3&1"
"Taueru River at Castlehill","taueru river at castlehill","gw-00036",9001096,"wellington","gwrc","upland","rural","ruamahanga river",-40.75449412,175.98867994,"24-Jul-2020","P",268,"3","3"
"Taueru River at Gladstone","taueru river at gladstone","gw-00037",9009016,"wellington","gwrc","lowland","rural","ruamahanga river",-41.06304782,175.66761699,"24-Jul-2020","P",93,"6","6&1"
"Tauherenikau River at Websters","tauherenikau river at websters","gw-00055",9011002,"wellington","gwrc","lowland","forest","ruamahanga river",-41.16791526,175.34926521,"24-Jul-2020","IF",12.5,"4","1&4"
"Totara Stream at Stronvar","totara stream at stronvar","gw-00044",9010385,"wellington","gwrc","upland","forest","kaiwhata river",-41.10919103,175.9538148,"24-Jul-2020","EF",237,"3","3"
"Waikanae River at Greenaway Rd","waikanae river at greenaway rd","gw-00010",9003856,"wellington","gwrc","lowland","rural","waikanae river",-40.87694978,175.03207168,"24-Jul-2020","P",21,"5","1"
"Waikanae River at Mangaone Walkway","waikanae river at mangaone walkway","gw-00009",9003697,"wellington","gwrc","upland","forest","waikanae river",-40.86856519,175.13565202,"24-Jul-2020","IF",281.5,"3","3"
"Waingawa River at South Rd","waingawa river at south rd","gw-00041",9006741,"wellington","gwrc","lowland","forest","ruamahanga river",-40.97549224,175.62329773,"24-Jul-2020","IF",110,"5","2"
"Wainuiomata River at Manuka Track","wainuiomata river at manuka track","gw-00028",9013597,"wellington","gwrc","upland","forest","wainuiomata river",-41.25677265,175.00892684,"24-Jul-2020","IF",332,"3","4&1"
"Waiohine River at Bicknells","waiohine river at bicknells","gw-00048",9009625,"wellington","gwrc","lowland","rural","ruamahanga river",-41.09110551,175.5076284,"24-Jul-2020","P",44,"5","6"
"Waiohine River at Gorge","waiohine river at gorge","gw-00047",9007799,"wellington","gwrc","lowland","forest","ruamahanga river",-41.01636817,175.40011859,"24-Jul-2020","IF",478,"4","2"
