"LawaSiteID","CouncilSiteID","SiteID","Year","NitrateMed","NitrateMed_Band","Nitrate95","Nitrate95_Band","Nitrate_Toxicity_Band","NitrateAnalysisNote","AmmoniacalMed","AmmoniacalMed_Band","Ammoniacal95","Ammoniacal95_Band","Ammonia_Toxicity_Band","AmmoniaAnalysisNote","E_coli_Period","E_coli_Median","E_coli_Median_Band","E_coli95","E_coli95_Band","E_coliRecHealth540","E_coliRecHealth540_Band","E_coliRecHealth260","E_coliRecHealth260_Band","E_coliSummaryband","E_coliAnalysisNote","NZReach","Region","Agency","SWQAltitude","SWQLanduse","Lat","Long","accessDate","Landcover","Altitude","AltitudeCl"
"arc-00082","AK2","Rangitopuni at Walkers (NRWQN) (AK2)","Overall",NA,NA,NA,NA,NA,"n = 0 Insufficient  to calculate annual medians ",0.0097799511002445,"A",0.0172492344481787,"A","A","",6,185,"D",3072.25,"DE",15.4929577464789,"C",36.6197183098592,"D","D","",2004645,"auckland","niwa","Lowland","Rural",-36.7442817687988,174.617904663086,"2019-07-11","Rural",27,"Lowland"
"ccc-00001","AVON05","wairarapa stream","Overall",0.835,"A",1.3,"A","A","",NA,NA,NA,NA,NA,"n = 0 No pH data available for NH4 adjustment, so NH4 cannot be judged against NOF standards. ",6,190,"D",643,"BC",13.3333333333333,"C",36.6666666666667,"D","D","",46010,"canterbury","ecan","lowland","Urban",-43.5222119317298,172.607012899531,"23-Jun-2020","Urban",7,"Lowland"
"ccc-00002","AVON06","waimairi stream","Overall",1.6365,"B",2.4092,"B","B","",NA,NA,NA,NA,NA,"n = 0 No pH data available for NH4 adjustment, so NH4 cannot be judged against NOF standards. ",6,230,"D",2110,"DE",16.6666666666667,"C",41.6666666666667,"D","D","",46105,"canterbury","ecan","lowland","Urban",-43.5233902165382,172.606782674794,"23-Jun-2020","Urban",7,"Lowland"
"ccc-00003","AVON07","avon river at mona vale","Overall",2.1005,"B",3.102,"B","B","",NA,NA,NA,NA,NA,"n = 0 No pH data available for NH4 adjustment, so NH4 cannot be judged against NOF standards. ",6,270,"DE",1810,"DE",16.6666666666667,"C",48.3333333333333,"D","D","",46105,"canterbury","ecan","lowland","Urban",-43.5245285539517,172.608036996872,"23-Jun-2020","Urban",7,"Lowland"
"ccc-00004","AVON12","avon river at carlton mill corner","Overall",1.4545,"B",2.0676,"B","B","",NA,NA,NA,NA,NA,"n = 0 No pH data available for NH4 adjustment, so NH4 cannot be judged against NOF standards. ",6,320,"DE",1700,"DE",13.3333333333333,"C",56.6666666666667,"DE","D","",46032,"canterbury","ecan","lowland","Urban",-43.5226691608001,172.625402289893,"23-Jun-2020","Urban",5,"Lowland"
"ccc-00005","AVON08","riccarton main drain","Overall",2.695,"C",3.406,"B","C","",NA,NA,NA,NA,NA,"n = 0 No pH data available for NH4 adjustment, so NH4 cannot be judged against NOF standards. ",6,220,"D",24000,"DE",20,"CD",36.6666666666667,"D","D","",46403,"canterbury","ecan","lowland","Urban",-43.53364735907,172.616452586676,"23-Jun-2020","Urban",5,"Lowland"
"ccc-00006","AVON09","addington brook","Overall",1.1,"B",1.5367,"B","B","",NA,NA,NA,NA,NA,"n = 0 No pH data available for NH4 adjustment, so NH4 cannot be judged against NOF standards. ",6,410,"DE",10020,"DE",43.3333333333333,"E",58.3333333333333,"DE","E","",46643,"canterbury","ecan","lowland","Urban",-43.5355540897489,172.621488125689,"23-Jun-2020","Urban",5,"Lowland"
"ccc-00007","AVON04","avon river at manchester street","Overall",1.2845,"B",1.7281,"B","B","",NA,NA,NA,NA,NA,"n = 0 No pH data available for NH4 adjustment, so NH4 cannot be judged against NOF standards. ",6,310,"DE",1020,"C",18.3333333333333,"C",50,"D","D","",46232,"canterbury","ecan","lowland","Urban",-43.5297168443237,172.639621835872,"23-Jun-2020","Urban",0,"Lowland"
"ccc-00008","AVON10","dudley creek","Overall",0.315,"A",0.52,"A","A","",NA,NA,NA,NA,NA,"n = 0 No pH data available for NH4 adjustment, so NH4 cannot be judged against NOF standards. ",6,960,"DE",4690,"DE",71.6666666666667,"E",93.3333333333333,"DE","E","",45694,"canterbury","ecan","lowland","Urban",-43.5147495497519,172.660548678238,"23-Jun-2020","Urban",0,"Lowland"
"ccc-00009","AVON03","avon river at dallington terrace/gayhurst road","Overall",1,"A",1.4,"A","A","",NA,NA,NA,NA,NA,"n = 0 No pH data available for NH4 adjustment, so NH4 cannot be judged against NOF standards. ",6,200,"D",1360,"DE",21.6666666666667,"D",43.3333333333333,"D","D","",45769,"canterbury","ecan","lowland","Urban",-43.5232541352865,172.672709377272,"23-Jun-2020","Urban",0.424641758204,"Lowland"
"ccc-00010","AVON11","horseshoe lake discharge","Overall",0.28,"A",1.043,"A","A","",NA,NA,NA,NA,NA,"n = 0 No pH data available for NH4 adjustment, so NH4 cannot be judged against NOF standards. ",6,650,"DE",3740,"DE",58.3333333333333,"E",85,"DE","E","",45487,"canterbury","ecan","lowland","Urban",-43.5045155077624,172.682479186561,"23-Jun-2020","Urban",2,"Lowland"
"ccc-00011","AVON13","avon river at avondale road bridge","Overall",0.825,"A",1.1759,"A","A","",NA,NA,NA,NA,NA,"n = 0 No pH data available for NH4 adjustment, so NH4 cannot be judged against NOF standards. ",6,160,"D",1509.99999999999,"DE",11.6666666666667,"C",23.3333333333333,"BC","D","",45364,"canterbury","ecan","lowland","Urban",-43.502162275476,172.687560852363,"23-Jun-2020","Urban",2,"Lowland"
"ccc-00012","AVON01","avon river at pages/seaview bridge","Overall",0.75,"A",1.1087,"A","A","",NA,NA,NA,NA,NA,"n = 0 No pH data available for NH4 adjustment, so NH4 cannot be judged against NOF standards. ",6,180,"D",867,"BC",8.33333333333333,"B",35,"D","D","",45582,"canterbury","ecan","lowland","Urban",-43.5109612586597,172.721312654641,"23-Jun-2020","Urban",0,"Lowland"
"ccc-00013","AVON02","avon river at bridge street","Overall",0.6625,"A",0.982,"A","A","",NA,NA,NA,NA,NA,"n = 0 No pH data available for NH4 adjustment, so NH4 cannot be judged against NOF standards. ",NA,310,NA,1199.99999999999,NA,23.728813559322,NA,49.1525423728814,NA,NA," Need 60 values, have only 59",46167,"canterbury","ecan","lowland","Urban",-43.5269609130163,172.723800118103,"23-Jun-2020","Urban",0,"Lowland"
"ccc-00014","HEATH08","heathcote river at templetons road","Overall",NA,NA,NA,NA,NA," Need 30 values for overall median, have 23 Need 30 values for overall 95%ile, have 23",NA,NA,NA,NA,NA,"n = 0 No pH data available for NH4 adjustment, so NH4 cannot be judged against NOF standards. ",NA,97,NA,6134.99999999997,NA,11.4285714285714,NA,22.8571428571429,NA,NA," Need 60 values, have only 35",47128,"canterbury","ecan","lowland","Urban",-43.5617741065307,172.577833809996,"23-Jun-2020","Urban",18,"Lowland"
"ccc-00015","HEATH09","haytons stream at retention basin","Overall",0.345,"A",1.11,"A","A","",NA,NA,NA,NA,NA,"n = 0 No pH data available for NH4 adjustment, so NH4 cannot be judged against NOF standards. ",6,125,"ABC",3369.99999999998,"DE",18.3333333333333,"C",35,"D","D","",47128,"canterbury","ecan","lowland","Urban",-43.5554877149543,172.579189062079,"23-Jun-2020","Urban",15,"Lowland"
"ccc-00016","HEATH10","curletts road stream upstream of heathcote river","Overall",1.415,"B",3.6109,"C","C","",NA,NA,NA,NA,NA,"n = 0 No pH data available for NH4 adjustment, so NH4 cannot be judged against NOF standards. ",6,260,"D",2979.99999999997,"DE",28.3333333333333,"D",48.3333333333333,"D","D","",47088,"canterbury","ecan","lowland","Urban",-43.5544930878685,172.590432667221,"23-Jun-2020","Urban",13,"Lowland"
"ccc-00017","HEATH14","curletts road stream at motorway","Overall",0.38,"A",3.4667,"B","B","",NA,NA,NA,NA,NA,"n = 0 No pH data available for NH4 adjustment, so NH4 cannot be judged against NOF standards. ",NA,230,NA,7675,NA,31.4814814814815,NA,44.4444444444444,NA,NA," Need 60 values, have only 54",46905,"canterbury","ecan","lowland","Urban",-43.548646774227,172.58400022271,"23-Jun-2020","Urban",13,"Lowland"
"ccc-00018","HEATH06","heathcote river at rose street","Overall",2.4,"B",3.4241,"B","B","",NA,NA,NA,NA,NA,"n = 0 No pH data available for NH4 adjustment, so NH4 cannot be judged against NOF standards. ",6,555,"DE",6149.99999999996,"DE",51.6666666666667,"E",63.3333333333333,"DE","E","",47077,"canterbury","ecan","lowland","Urban",-43.5707152325921,172.612271040374,"23-Jun-2020","Urban",64,"Lowland"
"ccc-00019","HEATH16","cashmere stream at sutherlands road","Overall",2.1275,"B",2.91,"B","B","",NA,NA,NA,NA,NA,"n = 0 No pH data available for NH4 adjustment, so NH4 cannot be judged against NOF standards. ",6,31,"ABC",191,"ABC",1.66666666666667,"A",1.66666666666667,"A","A","",48186,"canterbury","ecan","lowland","Rural",-43.5879724435027,172.579770063283,"23-Jun-2020","Rural",46,"Lowland"
"ccc-00020","HEATH05","cashmere stream at worsleys road","Overall",1.5685,"B",2,"B","B","",NA,NA,NA,NA,NA,"n = 0 No pH data available for NH4 adjustment, so NH4 cannot be judged against NOF standards. ",6,315,"DE",1730,"DE",18.3333333333333,"C",65,"DE","D","",47855,"canterbury","ecan","lowland","Urban",-43.5775960140065,172.616312750997,"23-Jun-2020","Urban",6,"Lowland"
"ccc-00021","HEATH07","heathcote river at ferniehurst street","Overall",2,"B",2.3095,"B","B","",NA,NA,NA,NA,NA,"n = 0 No pH data available for NH4 adjustment, so NH4 cannot be judged against NOF standards. ",6,535,"DE",3699.99999999998,"DE",50,"E",83.3333333333333,"DE","E","",47656,"canterbury","ecan","lowland","Urban",-43.5734881315978,172.617910682521,"23-Jun-2020","Urban",64,"Lowland"
"ccc-00022","HEATH04","heathcote river at bowenvale avenue","Overall",1.7815,"B",2.1,"B","B","",NA,NA,NA,NA,NA,"n = 0 No pH data available for NH4 adjustment, so NH4 cannot be judged against NOF standards. ",6,440,"DE",4269.99999999999,"DE",41.6666666666667,"E",73.3333333333333,"DE","E","",47708,"canterbury","ecan","lowland","Urban",-43.5720568323126,172.643184667368,"23-Jun-2020","Urban",7,"Lowland"
"ccc-00023","HEATH03","heathcote river at opawa road/clarendon terrace","Overall",1.615,"B",2,"B","B","",NA,NA,NA,NA,NA,"n = 0 No pH data available for NH4 adjustment, so NH4 cannot be judged against NOF standards. ",6,310,"DE",3489.99999999999,"DE",28.3333333333333,"D",60,"DE","D","",47078,"canterbury","ecan","lowland","Urban",-43.5556017193212,172.666472146971,"23-Jun-2020","Urban",8.55736923218,"Lowland"
"ccc-00024","HEATH12","heathcote river at mackenzie avenue","Overall",1.6,"B",2,"B","B","",NA,NA,NA,NA,NA,"n = 0 No pH data available for NH4 adjustment, so NH4 cannot be judged against NOF standards. ",6,355,"DE",9280,"DE",35,"E",66.6666666666667,"DE","E","",46901,"canterbury","ecan","lowland","Urban",-43.5528995571183,172.672043169022,"23-Jun-2020","Urban",6.68731880188,"Lowland"
"ccc-00026","HEATH02","heathcote river at tunnel road","Overall",1.2,"B",1.8,"B","B","",NA,NA,NA,NA,NA,"n = 0 No pH data available for NH4 adjustment, so NH4 cannot be judged against NOF standards. ",6,425,"DE",6580,"DE",48.3333333333333,"E",65,"DE","E","",47145,"canterbury","ecan","lowland","Urban",-43.5563186448341,172.691268649199,"23-Jun-2020","Urban",2.67674636841,"Lowland"
"ccc-00027","HEATH01","heathcote river at ferrymead bridge","Overall",0.896,"A",1.62,"B","B","",NA,NA,NA,NA,NA,"n = 0 No pH data available for NH4 adjustment, so NH4 cannot be judged against NOF standards. ",6,345,"DE",4049.99999999999,"DE",38.3333333333333,"E",60,"DE","E","",47241,"canterbury","ecan","lowland","Urban",-43.559910251614,172.708799883464,"23-Jun-2020","Urban",1,"Lowland"
"ccc-00028","STYX01","smacks creek at gardiners road","Overall",0.4975,"A",0.842,"A","A","",NA,NA,NA,NA,NA,"n = 0 No pH data available for NH4 adjustment, so NH4 cannot be judged against NOF standards. ",6,63,"ABC",788.999999999999,"BC",10,"BC",16.6666666666667,"A","B","",44162,"canterbury","ecan","lowland","Urban",-43.4622427363149,172.589518939099,"23-Jun-2020","Rural",18,"Lowland"
"ccc-00029","STYX02","styx river at gardiners road","Overall",0.41,"A",0.9915,"A","A","",NA,NA,NA,NA,NA,"n = 0 No pH data available for NH4 adjustment, so NH4 cannot be judged against NOF standards. ",NA,190,NA,685.5,NA,13.5593220338983,NA,35.5932203389831,NA,NA," Need 60 values, have only 59",44247,"canterbury","ecan","lowland","Rural",-43.4688124753422,172.589301725774,"23-Jun-2020","Rural",18,"Lowland"
"ccc-00030","STYX03","styx river at main north road","Overall",0.361,"A",0.554,"A","A","",NA,NA,NA,NA,NA,"n = 0 No pH data available for NH4 adjustment, so NH4 cannot be judged against NOF standards. ",6,420,"DE",1219.99999999999,"DE",38.3333333333333,"E",85,"DE","E","",44327,"canterbury","ecan","lowland","Urban",-43.4689725120054,172.617439572524,"23-Jun-2020","Urban",12,"Lowland"
"ccc-00031","STYX04","ka putahi/kaputone creek at blakes road","Overall",1.2,"B",1.6055,"B","B","",NA,NA,NA,NA,NA,"n = 0 No pH data available for NH4 adjustment, so NH4 cannot be judged against NOF standards. ",6,455,"DE",6309.99999999999,"DE",50,"E",70,"DE","E","",43286,"canterbury","ecan","lowland","Rural",-43.4617268213067,172.633980776857,"23-Jun-2020","Urban",9,"Lowland"
"ccc-00032","STYX05","ka putahi/kaputone creek at belfast rd","Overall",1,"A",1.21,"A","A","",NA,NA,NA,NA,NA,"n = 0 No pH data available for NH4 adjustment, so NH4 cannot be judged against NOF standards. ",6,1500,"DE",4719.99999999999,"DE",96.6666666666667,"E",100,"DE","E","",43691,"canterbury","ecan","lowland","Rural",-43.4596621439944,172.656159701242,"23-Jun-2020","Urban",9,"Lowland"
"ccc-00033","STYX06","styx river at marshland road bridge","Overall",0.53,"A",0.917999999999999,"A","A","",NA,NA,NA,NA,NA,"n = 0 No pH data available for NH4 adjustment, so NH4 cannot be judged against NOF standards. ",6,565,"DE",2130,"DE",63.3333333333333,"E",95,"DE","E","",44137,"canterbury","ecan","lowland","Urban",-43.4640694167338,172.658161372718,"23-Jun-2020","Urban",8,"Lowland"
"ccc-00034","STYX07","styx river at richards bridge","Overall",0.5245,"A",0.68,"A","A","",NA,NA,NA,NA,NA,"n = 0 No pH data available for NH4 adjustment, so NH4 cannot be judged against NOF standards. ",6,315,"DE",1499.99999999999,"DE",28.3333333333333,"D",70,"DE","D","",43308,"canterbury","ecan","lowland","Rural",-43.4473682406571,172.678242764415,"23-Jun-2020","Urban",5,"Lowland"
"ccc-00035","STYX08","styx river at harbour road bridge","Overall",0.4485,"A",0.641,"A","A","",NA,NA,NA,NA,NA,"n = 0 No pH data available for NH4 adjustment, so NH4 cannot be judged against NOF standards. ",6,170,"D",621,"BC",11.6666666666667,"C",33.3333333333333,"C","D","",41830,"canterbury","ecan","lowland","Rural",-43.4014011517447,172.691113348629,"23-Jun-2020","Rural",1,"Lowland"
"ccc-00036","HALS03","nottingham stream at candys road","Overall",0.722,"A",1.9,"B","B","",NA,NA,NA,NA,NA,"n = 0 No pH data available for NH4 adjustment, so NH4 cannot be judged against NOF standards. ",NA,770,NA,8019.99999999997,NA,55.9322033898305,NA,76.271186440678,NA,NA," Need 60 values, have only 59",48172,"canterbury","ecan","lowland","Rural",-43.5960820755419,172.560469911407,"23-Jun-2020","Rural",0,"Lowland"
"ccc-00037","HALS05","knights stream at sabys road","Overall",4.25,"C",5.9663,"C","C","",NA,NA,NA,NA,NA,"n = 0 No pH data available for NH4 adjustment, so NH4 cannot be judged against NOF standards. ",6,560,"DE",1460,"DE",53.3333333333333,"E",78.3333333333333,"DE","E","",48525,"canterbury","ecan","lowland","Rural",-43.5980955591596,172.550424215425,"23-Jun-2020","Rural",3,"Lowland"
"ccc-00038","HALS04","halswell river at akaroa highway (tai tapu road)","Overall",3.4,"C",5.0893,"C","C","",NA,NA,NA,NA,NA,"n = 0 No pH data available for NH4 adjustment, so NH4 cannot be judged against NOF standards. ",6,450,"DE",3650,"DE",38.3333333333333,"E",83.3333333333333,"DE","E","",48844,"canterbury","ecan","lowland","Rural",-43.6083092292221,172.559316723578,"23-Jun-2020","Rural",66,"Lowland"
"ccc-00039","OTUKAI01","otukaikino river at groynes inlet","Overall",0.169,"A",0.561,"A","A","",NA,NA,NA,NA,NA,"n = 0 No pH data available for NH4 adjustment, so NH4 cannot be judged against NOF standards. ",6,110,"ABC",271,"ABC",5,"B",10,"A","B","",43757,"canterbury","ecan","lowland","Urban",-43.4540719302806,172.602855421428,"23-Jun-2020","Rural",15,"Lowland"
"ccc-00040","OTUKAI02","wilsons stream","Overall",1.6025,"B",1.8,"B","B","",NA,NA,NA,NA,NA,"n = 0 No pH data available for NH4 adjustment, so NH4 cannot be judged against NOF standards. ",6,200,"D",4539.99999999999,"DE",15,"C",38.3333333333333,"D","D","",42824,"canterbury","ecan","lowland","Rural",-43.4368820331632,172.644517314171,"23-Jun-2020","Urban",6,"Lowland"
"ccc-00041","OUT01","linwood canal/city outfall drain","Overall",0.0915,"A",0.458,"A","A","",NA,NA,NA,NA,NA,"n = 0 No pH data available for NH4 adjustment, so NH4 cannot be judged against NOF standards. ",6,290,"DE",1240,"DE",25,"D",61.6666666666667,"DE","D","",46651,"canterbury","ecan","lowland","Urban",-43.5520000579572,172.70215530663,"23-Jun-2020","Urban",0,"Lowland"
"ccc-00042","OTUKAI03","otukaikino creek at omaka scout camp","Overall",0.185,"A",0.588,"A","A","",NA,NA,NA,NA,NA,"n = 0 No pH data available for NH4 adjustment, so NH4 cannot be judged against NOF standards. ",NA,97.5,NA,313.999999999998,NA,4.08163265306122,NA,6.12244897959184,NA,NA," Need 60 values, have only 49",43756,"canterbury","ecan","lowland","Rural",-43.4614535476,172.575437939442,"23-Jun-2020","Rural",23,"Lowland"
"ebop-00001","BQ966369","aongatete at sh2","Overall",0.2705,"A",0.6352,"A","A","",0.00199203187250996,"A",0.00366486178398404,"A","A","",6,48,"ABC",558,"BC",5,"B",13.3333333333333,"A","B","",4000490,"bay of plenty","boprc","lowland","Rural",-37.6073828302249,175.941409491124,"23-Jun-2020","Rural",16,"Lowland"
"ebop-00002","RN123610","haparapara at sh35","Overall",0.0325,"A",0.1012,"A","A","",0.00115830115830116,"A",0.00408024748360883,"A","A","",5,7,"ABC",282.5,"ABC",1.8348623853211,"A",5.5045871559633,"A","A","",4003934,"bay of plenty","boprc","lowland","Forest",-37.7998397579293,177.6698989117,"23-Jun-2020","Forest",49,"Lowland"
"ebop-00003","FN834668","kaituna at maungarangi rd","Overall",0.269,"A",0.36,"A","A","",0.00359695239659917,"A",0.0102584607418701,"A","A","",6,26,"ABC",483.499999999999,"ABC",4.22535211267606,"A",7.04225352112676,"A","A","",4003662,"bay of plenty","boprc","lowland","Rural",-37.8384673935175,176.390192548793,"23-Jun-2020","Rural",19,"Lowland"
"ebop-00006","DP784306","kopurererua at sh2","Overall",0.9205,"A",1.0893,"A","A","",0.0265943800555354,"A",0.0777371505712686,"B","B","",5,226.25,"D",2590.0001,"DE",18.75,"C",42.1875,"D","D","",4001195,"bay of plenty","boprc","lowland","Urban",-37.6975746328178,176.151257931251,"23-Jun-2020","Rural",19,"Lowland"
"ebop-00007","FL356693","kaituna at rotoiti outlet","Overall",0.042,"A",0.1835,"A","A","",0.00531752936059156,"A",0.0158341839254552,"A","A","",6,5,"ABC",26.55,"ABC",0,"A",0,"A","A","",4008095,"bay of plenty","boprc","upland","Rural",-38.0177585587837,176.343976823451,"23-Jun-2020","Rural",323,"Upland"
"ebop-00009","CO543022","ngamuwahine at old bridge","Overall",0.1885,"A",0.3001,"A","A","",0.00239234449760766,"A",0.00650290936689646,"A","A","",5,37,"ABC",3348.33354999998,"DE",15.5844155844156,"C",20.7792207792208,"BC","D","",4002930,"bay of plenty","boprc","lowland","Forest",-37.816784458299,176.015399445936,"23-Jun-2020","Forest",177.5,"Upland"
"ebop-00010","EL174017","ngongotaha at sh36","Overall",0.8155,"A",0.9159,"A","A","",0.00560344827586207,"A",0.0100996015936255,"A","A","",5,280,"DE",2750,"DE",26.1538461538462,"D",50.7692307692308,"DE","D","",4010395,"bay of plenty","boprc","upland","Rural",-38.0823576072631,176.212205642004,"23-Jun-2020","Rural",369.25,"Upland"
"ebop-00012","FL230406","ohau channel at sh33","Overall",0.0505,"A",0.252,"A","A","",0.00485446570972887,"A",0.0227272727272727,"A","A","",5,28,"ABC",203.5,"ABC",1.22699386503067,"A",4.29447852760736,"A","A","",4009042,"bay of plenty","boprc","upland","Rural",-38.0439971161231,176.330840055897,"23-Jun-2020","Rural",286,"Upland"
"ebop-00013","DO047598","omanawa at sh29","Overall",1.2,"B",1.34925,"A","B","",0.00287081339712919,"A",0.0054413923254351,"A","A","",5,110,"ABC",3550,"DE",9.23076923076923,"B",23.0769230769231,"BC","D","",4002044,"bay of plenty","boprc","lowland","Forest",-37.7545342603477,176.070120033999,"23-Jun-2020","Forest",29,"Lowland"
"ebop-00014","OK300616","otara at browns bridge","Overall",0.0685,"A",0.162,"A","A","",0.00167597765363128,"A",0.00529718102569908,"A","A","",5,27.5,"ABC",375,"ABC",3.33333333333333,"A",8.33333333333333,"A","A","",4011726,"bay of plenty","boprc","lowland","Forest",-38.0811717506377,177.366198500991,"23-Jun-2020","Forest",43,"Lowland"
"ebop-00016","GN922883","pongakawa at sh2","Overall",1.5615,"B",1.696,"B","B","",0.0055561399817659,"A",0.0272173333703467,"A","A","",5,133.333,"D",1760,"DE",10.6951871657754,"C",28.3422459893048,"BC","D","",4003250,"bay of plenty","boprc","lowland","Rural",-37.8155217087343,176.512698416166,"23-Jun-2020","Rural",17,"Lowland"
"ebop-00017","GN849464","pongakawa at old coach rd","Overall",1.574,"B",1.6918,"B","B","",0.00358565737051793,"A",0.0120310263631747,"A","A","",5,190,"D",1800,"DE",15,"C",35,"D","D","",4004139,"bay of plenty","boprc","lowland","Rural",-37.8534811960477,176.506195407174,"23-Jun-2020","Rural",103,"Lowland"
"ebop-00019","EK598179","puarenga at fri","Overall",0.8095,"A",1.041,"A","A","",0.0278438370071836,"A",0.0515493515493516,"B","B","",6,73,"ABC",1806.6668,"DE",14.4927536231884,"C",17.3913043478261,"A","D","",4013244,"bay of plenty","boprc","upland","Rural",-38.1564389941754,176.263799380814,"23-Jun-2020","Rural",294.5,"Upland"
"ebop-00021","JK491452","rangitaiki at matahina dam","Overall",0.387,"A",0.7688,"A","A","",0.0061666582162957,"A",0.0326331811263317,"A","A","",5,8.5,"ABC",78.7999999999998,"ABC",0.925925925925926,"A",0.925925925925926,"A","A","",4012263,"bay of plenty","boprc","lowland","Forest",-38.1150203795324,176.819978908605,"23-Jun-2020","Forest",39,"Lowland"
"ebop-00022","SO991920","raukokore at sh35","Overall",0.033,"A",0.11335,"A","A","",0.00148106212790825,"A",0.0050812401381722,"A","A","",6,12,"ABC",584,"BC",6.15384615384615,"B",7.69230769230769,"A","B","",4001560,"bay of plenty","boprc","lowland","Forest",-37.6736212535426,177.873695915599,"23-Jun-2020","Forest",22,"Lowland"
"ebop-00023","EP623312","rocky at mangatawa lane","Overall",0.7255,"A",1.1776,"A","A","",0.0237303237303237,"A",0.106343112398889,"B","B","",6,175,"D",2384,"DE",11.6666666666667,"C",33.3333333333333,"C","D","",4001210,"bay of plenty","boprc","lowland","Rural",-37.6944799012024,176.246312200819,"23-Jun-2020","Rural",15,"Lowland"
"ebop-00024","IK555889","tarawera at kawerau bridge","Overall",NA,NA,NA,NA,NA," Need 30 values for overall median, have 23 Need 30 values for overall 95%ile, have 23",NA,NA,NA,NA,NA," Need 30 values for overall median, have 23 Need 30 values for overall 95%ile, have 23",5,90,"ABC",477.5,"ABC",2.53164556962025,"A",7.59493670886076,"A","A","",4010551,"bay of plenty","boprc","lowland","Forest",-38.0802784158219,176.712421137622,"23-Jun-2020","Forest",26.25,"Lowland"
"ebop-00025","IL818464","tarawera at sh30","Overall",0.284,"A",0.3175,"A","A","",0.0394200311006162,"B",0.0677835051546392,"B","B","",5,64,"ABC",220,"ABC",3.33333333333333,"A",3.33333333333333,"A","A","",4008565,"bay of plenty","boprc","lowland","Forest",-38.0265092686686,176.738648828543,"23-Jun-2020","Forest",3.537569582463,"Lowland"
"ebop-00026","BQ711622","te mania at sh2","Overall",NA,NA,NA,NA,NA," Need 30 values for overall median, have 28 Need 30 values for overall 95%ile, have 28",NA,NA,NA,NA,NA," Need 30 values for overall median, have 28 Need 30 values for overall 95%ile, have 28",NA,470,NA,5639.99999999999,NA,27.5,NA,65,NA,NA," Need 60 values, have only 40",4000427,"bay of plenty","boprc","lowland","Rural",-37.5851497196765,175.911808371647,"23-Jun-2020","Rural",14,"Lowland"
"ebop-00027","BQ708712","te rereatukahia at sh2","Overall",0.3325,"A",0.608,"A","A","",0.00231253755926017,"A",0.0056701030927835,"A","A","",5,115.8335,"ABC",1580,"DE",8.51063829787234,"B",15.9574468085106,"A","D","",4000415,"bay of plenty","boprc","lowland","Rural",-37.5770915770481,175.911188609567,"23-Jun-2020","Rural",21,"Lowland"
"ebop-00028","BR809582","tuapiro at hikurangi rd","Overall",0.0665,"A",0.2434,"A","A","",0.00172413793103448,"A",0.00509914664825137,"A","A","",6,118.3335,"ABC",782,"BC",13.3333333333333,"C",20,"BC","C","",4000162,"bay of plenty","boprc","lowland","Rural",-37.4984489368448,175.919507525151,"23-Jun-2020","Rural",16,"Lowland"
"ebop-00030","BS961133","waiau at waiau rd ford","Overall",0.2555,"A",0.6288,"A","A","",0.00316742081447964,"A",0.00959274694742999,"A","A","",6,265,"DE",3940,"DE",18.3333333333333,"C",45,"D","D","",4000069,"bay of plenty","boprc","lowland","Rural",-37.4484483244256,175.934796941143,"23-Jun-2020","Rural",18,"Lowland"
"ebop-00031","LK149881","tauranga at taneatua bridge","Overall",0.1565,"A",0.308,"A","A","",0.00305343511450382,"A",0.0131904825379899,"A","A","",5,29,"ABC",1420,"DE",8.33333333333333,"B",13.3333333333333,"A","D","",4010772,"bay of plenty","boprc","lowland","Forest",-38.0701442364387,177.006514019474,"23-Jun-2020","Forest",30,"Lowland"
"ebop-00032","DO712717","waimapu at pukemapu rd","Overall",0.621,"A",0.95245,"A","A","",0.00347490347490347,"A",0.0144545135454226,"A","A","",NA,190,NA,6179.99999999998,NA,22.0338983050847,NA,38.9830508474576,NA,NA," Need 60 values, have only 59",4001763,"bay of plenty","boprc","lowland","Rural",-37.7507801226566,176.14544731734,"23-Jun-2020","Rural",41,"Lowland"
"ebop-00033","DO686858","waimapu 100m d/s sh29","Overall",0.7905,"A",1.0398,"A","A","",0.00721839435074729,"A",0.0152895752895753,"A","A","",6,350,"DE",6920,"DE",25.7142857142857,"D",67.1428571428571,"DE","D","",4001685,"bay of plenty","boprc","lowland","Rural",-37.7381884351537,176.141918776596,"23-Jun-2020","Rural",20.6666666666667,"Lowland"
"ebop-00035","CP466747","waipapa at old highway","Overall",0.5295,"A",0.8904,"A","A","",0.00358565737051793,"A",0.00653398453398453,"A","A","",6,230,"D",2675.99999999999,"DE",11.6666666666667,"C",33.3333333333333,"C","D","",4000795,"bay of plenty","boprc","lowland","Rural",-37.6617415079616,176.000395344288,"23-Jun-2020","Rural",36.5,"Lowland"
"ebop-00036","CO938527","wairoa d/s ruahihi power station","Overall",0.36,"A",0.47275,"A","A","",0.00372383034921735,"A",0.00863580269997382,"A","A","",NA,52,NA,2233.33325,NA,15.6862745098039,NA,27.4509803921569,NA,NA," Need 60 values, have only 51",4002072,"bay of plenty","boprc","lowland","Forest",-37.7701834581922,176.058395583913,"23-Jun-2020","Forest",44,"Lowland"
"ebop-00037","DP281304","wairoa at sh2","Overall",0.422,"A",0.5474,"A","A","",0.00537190082644628,"A",0.0128185328185328,"A","A","",5,112.5,"ABC",2603.33309999998,"DE",11.9318181818182,"C",25.5681818181818,"BC","D","",4001207,"bay of plenty","boprc","lowland","Forest",-37.6992169435331,176.094403671783,"23-Jun-2020","Forest",19,"Lowland"
"ebop-00038","HN674689","Waitahanui at Otamarakau Marae","Overall",0.768,"A",0.91965,"A","A","",0.00446927374301676,"A",0.0196684040776363,"A","A","",6,86.6665,"ABC",3219.99999999999,"DE",15.625,"C",21.875,"BC","D","",4003723,"bay of plenty","boprc","lowland","Rural",-37.8304503881097,176.598798594433,"23-Jun-2020","Rural",14,"Lowland"
"ebop-00039","EO451883","waitao at waitao rd","Overall",0.429,"A",0.744,"A","A","",0.00825594274516486,"A",0.0155753337571519,"A","A","",6,415,"DE",5200,"DE",34.2857142857143,"E",67.1428571428571,"DE","E","",4001499,"bay of plenty","boprc","lowland","Rural",-37.7336210997026,176.228499689903,"23-Jun-2020","Rural",37,"Lowland"
"ebop-00040","BQ739463","waitekohe at sh2","Overall",0.1025,"A",0.3726,"A","A","",0.00227625988739595,"A",0.00829608649096749,"A","A","",5,62,"ABC",1530,"DE",12.3711340206186,"C",17.5257731958763,"A","D","",4000461,"bay of plenty","boprc","lowland","Forest",-37.5993647067078,175.915601617197,"23-Jun-2020","Forest",212,"Upland"
"ebop-00041","LK082095","whakatane at ruatoki","Overall",0.0635,"A",0.1465,"A","A","",0.00167597765363128,"A",0.004852991994471,"A","A","",5,17,"ABC",698.95,"BC",6.10687022900763,"B",8.3969465648855,"A","B","",4013567,"bay of plenty","boprc","lowland","Forest",-38.1410629954322,177.002809818585,"23-Jun-2020","Rural",34,"Lowland"
"ebop-00042","KL998150","whakatane at pekatahi bridge","Overall",0.13,"A",0.27175,"A","A","",0.00309079329697886,"A",0.00760180995475112,"A","A","",5,49.5,"ABC",1920,"DE",9.80392156862745,"B",12.7450980392157,"A","D","",4010027,"bay of plenty","boprc","lowland","Forest",-38.0465484125758,176.987968121962,"23-Jun-2020","Forest",40.5,"Lowland"
"ebop-00044","NK608503","waioeka at mouth of gorge","Overall",0.0595,"A",0.192,"A","A","",0.00152671755725191,"A",0.00391061452513967,"A","A","",5,35.5,"ABC",558,"BC",5.97014925373134,"B",10.4477611940298,"A","B","",4011953,"bay of plenty","boprc","lowland","Forest",-38.094286346682,177.288046746424,"23-Jun-2020","Forest",99,"Lowland"
"ebop-00045","GS4","Motu at Houpoto (NRWQN) (GS4)","Overall",NA,NA,NA,NA,NA,"n = 0 Insufficient  to calculate annual medians ",0.00261635065254864,"A",0.00830070121118295,"A","A","",5,14.9,"ABC",542.84,"BC",4.80769230769231,"A",9.61538461538462,"A","B","",4005222,"bay of plenty","niwa","lowland","Forest",-37.8636932373047,177.632278442383,"2019-07-11","Forest",139,"Lowland"
"ebop-00047","GM781934","pongakawa at pumphouse","Overall",1.344,"B",1.4436,"A","B","",0.000764888264888265,"A",0.00268063982349697,"A","A","",NA,39.5,NA,167,NA,0,NA,2.4390243902439,NA,NA," Need 60 values, have only 41",4005113,"bay of plenty","boprc","lowland","Rural",-37.9013550234117,176.500737085208,"23-Jun-2020","Rural",45,"Lowland"
"ebop-00048","IG265664","rangitaiki at murupara","Overall",NA,NA,NA,NA,NA,"n = 0 Insufficient  to calculate annual medians ",0.00417163289630513,"A",0.0120185440575284,"A","A","",5,28,"ABC",208.5,"ABC",1.30718954248366,"A",3.92156862745098,"A","A","",4022486,"bay of plenty","boprc","upland","Forest",-38.4601551204011,176.69768552677,"23-Jun-2020","Forest",195,"Upland"
"ebop-00050","RO2","Tarawera at Awakaponga (NRWQN) (RO2)","Overall",NA,NA,NA,NA,NA,"n = 0 Insufficient  to calculate annual medians ",0.0210793450881612,"A",0.0308453619941582,"A","A","",5,65.05,"ABC",233.55,"ABC",1.66666666666667,"A",3.33333333333333,"A","A","",4006225,"bay of plenty","niwa","lowland","Forest",-37.9389953613281,176.767044067383,"2019-07-11","Rural",42.9373130798,"Lowland"
"ebop-00051","GJ662805","tarawera at lake outlet","Overall",NA,NA,NA,NA,NA,"n = 0 Insufficient  to calculate annual medians ",0.00159884463984459,"A",0.00529373957754308,"A","A","",5,1,"ABC",12,"ABC",0,"A",0,"A","A","",4014379,"bay of plenty","boprc","upland","Forest",-38.1832613030459,176.500596760016,"23-Jun-2020","Forest",531.5,"Upland"
"ebop-00052","BQ723939","uretara at henry rd ford","Overall",0.2,"A",0.523125,"A","A","",0.00172413793103448,"A",0.00484877734877735,"A","A","",5,230,"D",1485,"DE",23.4741784037559,"D",43.6619718309859,"D","D","",4000415,"bay of plenty","boprc","lowland","Rural",-37.5565881128289,175.912099144522,"23-Jun-2020","Rural",21,"Lowland"
"ebop-00053","IG691428","whirinaki at galatea","Overall",NA,NA,NA,NA,NA,"n = 0 Insufficient  to calculate annual medians ",0.00275103163686382,"A",0.00804963906960163,"A","A","",5,32.3,"ABC",342.45,"ABC",1.8348623853211,"A",8.25688073394496,"A","A","",4022892,"bay of plenty","boprc","upland","Forest",-38.4798169932264,176.747577277343,"23-Jun-2020","Forest",230,"Upland"
"ebop-00057","FO620177","kaituna at te matai","Overall",0.5355,"A",0.722,"A","A","",0.013868825722274,"A",0.0343629632399686,"A","A","",5,76.8335,"ABC",2000,"DE",10.1694915254237,"C",16.1016949152542,"A","D","",4002830,"bay of plenty","boprc","lowland","Rural",-37.7934217549296,176.363800997398,"23-Jun-2020","Rural",8.7598183155075,"Lowland"
"ebop-00062","MK307635","nukuhou at glenholme rd","Overall",0.4805,"A",0.9985,"A","A","",0.0120689655172414,"A",0.0423079937304075,"A","A","",5,290,"DE",6750,"DE",36.6666666666667,"E",51.6666666666667,"DE","E","",4011135,"bay of plenty","boprc","lowland","Rural",-38.0876915281408,177.139409587158,"23-Jun-2020","Rural",19,"Lowland"
"ebop-00070","JL350292","rangitaiki at te teko","Overall",NA,NA,NA,NA,NA,"n = 0 Insufficient  to calculate annual medians ",0.00460530374300211,"A",0.0100229465261843,"A","A","",5,27.975,"ABC",280,"ABC",3.63636363636364,"A",5.45454545454545,"A","A","",4009262,"bay of plenty","boprc","lowland","Forest",-38.0400378942047,176.800003428746,"23-Jun-2020","Forest",-3,"Lowland"
"ebop-00075","JM102399","tarawera at awakaponga","Overall",0.412,"A",0.4496,"A","A","",0.0225471027372911,"A",0.0326288659793814,"A","A","",5,68,"ABC",229.5,"ABC",2.56410256410256,"A",4.27350427350427,"A","A","",4005288,"bay of plenty","boprc","lowland","Rural",-37.9414091255637,176.766690971962,"23-Jun-2020","Rural",-21.96124916078,"Lowland"
"ebop-00101","RO629568","kereu at sh35","Overall",0.03,"A",0.1156,"A","A","",0.00132528475581214,"A",0.00373259201839031,"A","A","",5,5,"ABC",100.9999,"ABC",2.18978102189781,"A",2.91970802919708,"A","A","",4002192,"bay of plenty","boprc","lowland","Forest",-37.7115237930874,177.721793712608,"23-Jun-2020","Forest",72.5,"Lowland"
"ecan-00001","SQ10012","willowburn quailburn road","Overall",0.875,"A",1.225,"A","A","",0.0057928874972042,"A",0.0116478233729809,"A","A","",6,378,"DE",1689.7,"DE",31.25,"E",59.375,"DE","E","",16282,"canterbury","ecan","upland","Rural",-44.4586391847475,169.97260940189,"23-Jun-2020","Rural",440,"Upland"
"ecan-00002","SQ10037","sutherlands creek ben omar road","Overall",0.07,"A",0.3475,"A","A","",0.00210970464135021,"A",0.00867212602136308,"A","A","",6,326,"DE",2649.9,"DE",36.5079365079365,"E",52.3809523809524,"DE","E","",16444,"canterbury","ecan","upland","Rural",-44.4652256134142,170.037831405501,"23-Jun-2020","Rural",394,"Upland"
"ecan-00003","SQ10057","hakataramea river cattle creek","Overall",NA,NA,NA,NA,NA," Need 30 values for overall median, have 16 Need 30 values for overall 95%ile, have 16",NA,NA,NA,NA,NA," Need 30 values for overall median, have 16 Need 30 values for overall 95%ile, have 16",NA,28.5,NA,761.3,NA,10.5263157894737,NA,21.0526315789474,NA,NA," Need 60 values, have only 19",17133,"canterbury","ecan","upland","Rural",-44.5092562695125,170.680355318672,"23-Jun-2020","Rural",415,"Upland"
"ecan-00007","SQ10804","wairepo creek at arm inlet","Overall",NA,NA,NA,NA,NA," Need 30 values for overall median, have 17 Need 30 values for overall 95%ile, have 17",NA,NA,NA,NA,NA," Need 30 values for overall median, have 17 Need 30 values for overall 95%ile, have 17",NA,35,NA,338.35,NA,0,NA,23.8095238095238,NA,NA," Need 60 values, have only 21",12700,"canterbury","ecan","upland","Forest",-44.304589203999,170.070366166664,"23-Jun-2020","Rural",464,"Upland"
"ecan-00008","SQ10814","cattle creek morland settlement road","Overall",0.027,"A",0.07095,"A","A","",0.00255754475703325,"A",0.00684128924023107,"A","A","",6,52,"ABC",1684.85,"DE",12.6984126984127,"C",19.047619047619,"A","D","",17128,"canterbury","ecan","upland","Rural",-44.5088760634413,170.675740062008,"23-Jun-2020","Rural",446,"Upland"
"ecan-00010","SQ10818","deadman stream hakataramea valley road","Overall",0.0405,"A",3.21,"B","B","",0.00225123818099955,"A",0.0229406130268199,"A","A","",6,164.5,"D",2662,"DE",36.6666666666667,"E",45,"D","E","",18543,"canterbury","ecan","upland","Rural",-44.5980074564774,170.63545129395,"23-Jun-2020","Rural",336,"Upland"
"ecan-00014","SQ20104","ashburton river at sh1","Overall",0.94,"A",1.984,"B","B","",0.00300842358604092,"A",0.0169026777350689,"A","A","",6,122,"ABC",2662,"DE",22.2222222222222,"D",34.9206349206349,"D","D","",58824,"canterbury","ecan","lowland","Urban",-43.9095209565713,171.738744417191,"23-Jun-2020","Urban",93,"Lowland"
"ecan-00016","SQ20106","ashburton river north branch at digbys bridge","Overall",NA,NA,NA,NA,NA," Need 30 values for overall median, have 14 Need 30 values for overall 95%ile, have 14",NA,NA,NA,NA,NA," Need 30 values for overall median, have 14 Need 30 values for overall 95%ile, have 14",NA,110.5,NA,2239.2,NA,11.7647058823529,NA,17.6470588235294,NA,NA," Need 60 values, have only 17",57396,"canterbury","ecan","lowland","Rural",-43.8538069758746,171.731047467937,"23-Jun-2020","Rural",125,"Lowland"
"ecan-00018","SQ20107","ashburton river south branch at hills road","Overall",NA,NA,NA,NA,NA," Need 30 values for overall median, have 17 Need 30 values for overall 95%ile, have 17",NA,NA,NA,NA,NA," Need 30 values for overall median, have 17 Need 30 values for overall 95%ile, have 17",NA,238,NA,2225.2,NA,23.8095238095238,NA,42.8571428571429,NA,NA," Need 60 values, have only 21",57996,"canterbury","ecan","lowland","Rural",-43.8677201381674,171.699936171661,"23-Jun-2020","Rural",117,"Lowland"
"ecan-00020","SQ20112","ashburton river north branch at sh72","Overall",0.025,"A",0.077,"A","A","",0.00308268904752131,"A",0.00461254612546126,"A","A","",6,20,"ABC",261,"ABC",1.61290322580645,"A",4.83870967741935,"A","A","",48738,"canterbury","ecan","upland","Rural",-43.6052352191034,171.531915171048,"23-Jun-2020","Rural",430,"Upland"
"ecan-00025","SQ20176","rangitata river upstream of sh1 bridge","Overall",NA,NA,NA,NA,NA," Need 30 values for overall median, have 18 Need 30 values for overall 95%ile, have 18",NA,NA,NA,NA,NA," Need 30 values for overall median, have 18 Need 30 values for overall 95%ile, have 18",NA,145.5,NA,2391.6,NA,23.8095238095238,NA,33.3333333333333,NA,NA," Need 60 values, have only 21",61585,"canterbury","ecan","lowland","Rural",-44.0514733151779,171.402048221479,"23-Jun-2020","Rural",103,"Lowland"
"ecan-00026","SQ20177","rangitata river sh72","Overall",0.058,"A",0.1766,"A","A","",0.00402576489533011,"A",0.00849767260445419,"A","A","",6,41,"ABC",643.6,"BC",7.69230769230769,"B",10.7692307692308,"A","B","",60064,"canterbury","ecan","upland","Rural",-43.9746291022334,171.300218477889,"23-Jun-2020","Rural",218,"Upland"
"ecan-00027","SQ20195","smithfield creek te awa rd","Overall",4.5,"C",6.395,"C","C","",0.00193648334624322,"A",0.0138961436398773,"A","A","",6,291,"DE",2589.04999999999,"DE",30.1587301587302,"E",57.1428571428571,"DE","E","",63898,"canterbury","ecan","lowland","Rural",-44.2107394898403,171.26315101513,"23-Jun-2020","Rural",26,"Lowland"
"ecan-00028","SQ20199","taumatakahu stream murray st","Overall",NA,NA,NA,NA,NA," Need 30 values for overall median, have 18 Need 30 values for overall 95%ile, have 18",NA,NA,NA,NA,NA," Need 30 values for overall median, have 17 Need 30 values for overall 95%ile, have 17",NA,548,NA,1458.2,NA,54.5454545454545,NA,81.8181818181818,NA,NA," Need 60 values, have only 22",70001,"canterbury","ecan","lowland","Urban",-44.2492570143838,171.300171998514,"23-Jun-2020","Rural",8,"Lowland"
"ecan-00034","SQ20252","temuka river manse bridge","Overall",1.69,"B",2.59,"B","B","",0.00225123818099955,"A",0.0182509505703422,"A","A","",6,82.5,"ABC",1942.7,"DE",14.0625,"C",18.75,"A","D","",64432,"canterbury","ecan","lowland","Rural",-44.244727215606,171.267715890338,"23-Jun-2020","Rural",11,"Lowland"
"ecan-00036","SQ20318","raukapuka creek coach road","Overall",2.1,"B",3.485,"B","B","",0.00193650193650194,"A",0.00524137931034482,"A","A","",6,387,"DE",1553,"DE",30.1587301587302,"E",66.6666666666667,"DE","E","",62728,"canterbury","ecan","lowland","Rural",-44.1263406312623,171.26409968914,"23-Jun-2020","Rural",88,"Lowland"
"ecan-00038","SQ20332","waihi river waimarie","Overall",0.178,"A",0.41,"A","A","",0.0831024930747923,"B",0.154004106776181,"B","B","",6,41.5,"ABC",579,"BC",4.83870967741935,"A",17.741935483871,"A","B","",60742,"canterbury","ecan","upland","Rural",-44.0034631945214,171.165278923676,"23-Jun-2020","Rural",298,"Upland"
"ecan-00040","SQ20350","te ngawai river 200m u/s te ngawai road","Overall",0.163,"A",0.9545,"A","A","",0.00289687137891078,"A",0.00873452318229713,"A","A","",6,26,"ABC",1064.4,"C",6.55737704918033,"B",6.55737704918033,"A","C","",64572,"canterbury","ecan","lowland","Rural",-44.245427456632,171.113245952234,"23-Jun-2020","Rural",80,"Lowland"
"ecan-00042","SQ20401","saltwater creek sh1 bridge","Overall",NA,NA,NA,NA,NA," Need 30 values for overall median, have 16 Need 30 values for overall 95%ile, have 16",NA,NA,NA,NA,NA," Need 30 values for overall median, have 15 Need 30 values for overall 95%ile, have 15",NA,42.5,NA,2662,NA,20,NA,25,NA,NA," Need 60 values, have only 20",66278,"canterbury","ecan","lowland","Urban",-44.4177432490757,171.242543374206,"23-Jun-2020","Rural",13,"Lowland"
"ecan-00045","SQ20509","boundary drain trigpole road","Overall",11.7,"D",15.355,"D","D","",0.00206611570247934,"A",0.0131274246781571,"A","A","",6,299.5,"DE",2333.3,"DE",26.5625,"D",54.6875,"DE","D","",62653,"canterbury","ecan","lowland","Rural",-44.0944191842254,171.62389841754,"23-Jun-2020","Rural",25,"Lowland"
"ecan-00046","SQ20545","rhodes stream parke road","Overall",7.9,"D",9.29,"C","D","",0.00193949264437258,"A",0.00907655880031571,"A","A","",6,102,"ABC",2420,"DE",12.6984126984127,"C",23.8095238095238,"BC","D","",64295,"canterbury","ecan","lowland","Rural",-44.2266638342398,171.407107057755,"23-Jun-2020","Rural",6,"Lowland"
"ecan-00047","SQ20575","waihao river bradshaw bridge","Overall",0.425,"A",1.062,"A","A","",0.00212765957446809,"A",0.00247867932255655,"A","A","",6,57,"ABC",307.1,"ABC",3.125,"A",9.375,"A","A","",68957,"canterbury","ecan","lowland","Rural",-44.7793002290277,171.157808543354,"23-Jun-2020","Rural",4,"Lowland"
"ecan-00049","SQ20577","waihao river mcculloch bridge","Overall",NA,NA,NA,NA,NA," Need 30 values for overall median, have 18 Need 30 values for overall 95%ile, have 18",NA,NA,NA,NA,NA," Need 30 values for overall median, have 17 Need 30 values for overall 95%ile, have 17",NA,108.5,NA,587.199999999999,NA,4.54545454545455,NA,18.1818181818182,NA,NA," Need 60 values, have only 22",69160,"canterbury","ecan","lowland","Rural",-44.8004997872664,170.975731755204,"23-Jun-2020","Rural",74,"Lowland"
"ecan-00050","SQ20725","hae hae te moana river south branch sheep dip road","Overall",0.075,"A",0.3515,"A","A","",0.00343878954607978,"A",0.0122803381962864,"A","A","",6,63,"ABC",1321.65,"DE",13.1147540983607,"C",18.0327868852459,"A","D","",61335,"canterbury","ecan","upland","Rural",-44.0414997577651,171.111039569109,"23-Jun-2020","Forest",237,"Upland"
"ecan-00052","SQ21047","ohapi creek upstream orari river confluence","Overall",0.91,"A",1.92,"B","B","",0.00314473369841252,"A",0.0175808720112518,"A","A","",6,248,"D",1973.35,"DE",33.3333333333333,"E",49.2063492063492,"D","E","",64439,"canterbury","ecan","lowland","Rural",-44.2399269167372,171.386471284131,"23-Jun-2020","Rural",5,"Lowland"
"ecan-00053","SQ21049","orakipaoa creek milford lagoon rd","Overall",1.65,"B",3.095,"B","B","",0.00511216318387479,"A",0.0320754716981132,"A","A","",6,387,"DE",2662,"DE",33.3333333333333,"E",58.7301587301587,"DE","E","",64794,"canterbury","ecan","lowland","Rural",-44.2639841523325,171.336934555297,"23-Jun-2020","Rural",4,"Lowland"
"ecan-00054","SQ21160","waikakahi stream cock & hen road","Overall",3.45,"C",5.28,"C","C","",0.00334681617869758,"A",0.107933579335793,"B","B","",6,243.5,"D",2662,"DE",37.5,"E",50,"D","E","",23169,"canterbury","ecan","lowland","Rural",-44.871471120161,170.965024215105,"23-Jun-2020","Rural",65,"Lowland"
"ecan-00055","SQ21289","whitneys creek carrolls rd","Overall",1.76,"B",3.1,"B","B","",0.00436904319948928,"A",0.0573275862068966,"B","B","",6,146.5,"D",2662,"DE",31.25,"E",42.1875,"D","E","",23742,"canterbury","ecan","lowland","Rural",-44.8990727578079,171.122406750752,"23-Jun-2020","Rural",26,"Lowland"
"ecan-00057","SQ21292","buchanans creek upstream confluence waihao river","Overall",0.71,"A",1.358,"A","A","",0.00199203187250996,"A",0.00600539228592351,"A","A","",6,106.5,"ABC",430.2,"ABC",3.125,"A",12.5,"A","A","",68955,"canterbury","ecan","lowland","Rural",-44.7753082562782,171.152927657569,"23-Jun-2020","Rural",3,"Lowland"
"ecan-00058","SQ21296","sir charles creek end of haymans road","Overall",NA,NA,NA,NA,NA," Need 30 values for overall median, have 18 Need 30 values for overall 95%ile, have 18",NA,NA,NA,NA,NA," Need 30 values for overall median, have 17 Need 30 values for overall 95%ile, have 17",NA,361.5,NA,1106.4,NA,31.8181818181818,NA,59.0909090909091,NA,NA," Need 60 values, have only 22",68672,"canterbury","ecan","lowland","Rural",-44.749172725692,171.160595312284,"23-Jun-2020","Rural",4,"Lowland"
"ecan-00059","SQ21298","hook river beach road","Overall",2.05,"B",4.45,"C","C","",0.00193050193050193,"A",0.004626263502668,"A","A","",6,192.5,"D",2551.1,"DE",31.25,"E",42.1875,"D","E","",68187,"canterbury","ecan","lowland","Rural",-44.6762283808225,171.147463390604,"23-Jun-2020","Rural",6,"Lowland"
"ecan-00061","SQ21299","hook drain end hook-beach road","Overall",3.2,"C",6.57,"C","C","",0.0223092413053277,"A",0.155297985366342,"B","B","",5,108,"ABC",2042.15,"DE",16.3934426229508,"C",22.9508196721311,"BC","D","",68115,"canterbury","ecan","lowland","Rural",-44.6656823451987,171.161980272293,"23-Jun-2020","Rural",0,"Lowland"
"ecan-00062","SQ21309","coopers creek sh72","Overall",NA,NA,NA,NA,NA," Need 30 values for overall median, have 15 Need 30 values for overall 95%ile, have 15",NA,NA,NA,NA,NA," Need 30 values for overall median, have 15 Need 30 values for overall 95%ile, have 15",NA,866,NA,2493,NA,57.8947368421053,NA,68.4210526315789,NA,NA," Need 60 values, have only 19",61028,"canterbury","ecan","upland","Forest",-44.0155449931473,171.277695291966,"23-Jun-2020","Rural",176,"Upland"
"ecan-00065","SQ26221","mckinnons stream wallaces bridge","Overall",4.8,"C",7.395,"C","C","",0.00182083029861617,"A",0.00432744320230797,"A","A","",6,276,"DE",2420,"DE",28.5714285714286,"D",49.2063492063492,"D","D","",62805,"canterbury","ecan","lowland","Urban",-44.1521484301623,171.480380494462,"23-Jun-2020","Rural",18,"Lowland"
"ecan-00069","SQ26633","orari river parke rd","Overall",1.86,"B",3.585,"C","C","",0.00251889168765743,"A",0.00659630606860159,"A","A","",6,30,"ABC",283.699999999999,"ABC",4.76190476190476,"A",7.93650793650794,"A","A","",64298,"canterbury","ecan","lowland","Forest",-44.2376928368112,171.392203175831,"23-Jun-2020","Rural",3,"Lowland"
"ecan-00070","SQ30162","waipara river u/s teviotdale bridge","Overall",0.082,"A",0.77,"A","A","",0.00598844481164011,"A",0.0232558139534883,"A","A","",6,16,"ABC",649,"BC",4.83870967741935,"A",9.67741935483871,"A","B","",32346,"canterbury","ecan","lowland","Rural",-43.1278646888299,172.778902375745,"23-Jun-2020","Rural",97,"Lowland"
"ecan-00071","SQ30175","ashley river 50m u/s sh1","Overall",0.181,"A",0.3095,"A","A","",0.00272479564032697,"A",0.0072671997334666,"A","A","",6,20,"ABC",327.9,"ABC",1.58730158730159,"A",6.34920634920635,"A","A","",37679,"canterbury","ecan","lowland","Rural",-43.2768152586731,172.688643197524,"23-Jun-2020","Rural",10,"Lowland"
"ecan-00072","SQ30222","waikuku stream d/s sh1","Overall",NA,NA,NA,NA,NA," Need 30 values for overall median, have 17 Need 30 values for overall 95%ile, have 17",NA,NA,NA,NA,NA," Need 30 values for overall median, have 17 Need 30 values for overall 95%ile, have 17",NA,270,NA,506.85,NA,14.2857142857143,NA,57.1428571428571,NA,NA," Need 60 values, have only 21",38063,"canterbury","ecan","lowland","Rural",-43.2896237670408,172.685238044038,"23-Jun-2020","Rural",7,"Lowland"
"ecan-00079","SQ30332","kaiapoi river u/s island rd","Overall",4.8,"C",5.9,"C","C","",0.00235183443085607,"A",0.0215762877077775,"A","A","",6,326,"DE",2662,"DE",18.0327868852459,"C",55.7377049180328,"DE","D","",40903,"canterbury","ecan","lowland","Rural",-43.3755752336847,172.633582842597,"23-Jun-2020","Rural",6,"Lowland"
"ecan-00080","SQ30369","cam river u/s bramleys road","Overall",0.945,"A",1.592,"B","B","",0.00354071460249513,"A",0.0881281400099374,"B","B","",NA,816,NA,2662,NA,65.7894736842105,NA,92.1052631578947,NA,NA," Need 60 values, have only 38",39770,"canterbury","ecan","lowland","Rural",-43.3433888423596,172.636995813286,"23-Jun-2020","Rural",8,"Lowland"
"ecan-00081","SQ30400","cust river u/s skewbridge road","Overall",3.95,"C",6.34,"C","C","",0.00293934382516742,"A",0.035893964070203,"A","A","",6,219.5,"D",2662,"DE",21.2121212121212,"D",43.9393939393939,"D","D","",40638,"canterbury","ecan","lowland","Rural",-43.3713567159681,172.628944258392,"23-Jun-2020","Rural",7,"Lowland"
"ecan-00082","SQ30426","ohoka river u/s island rd","Overall",NA,NA,NA,NA,NA," Need 30 values for overall median, have 17 Need 30 values for overall 95%ile, have 17",NA,NA,NA,NA,NA," Need 30 values for overall median, have 16 Need 30 values for overall 95%ile, have 16",NA,727,NA,2577.3,NA,57.1428571428571,NA,95.2380952380952,NA,NA," Need 60 values, have only 21",40951,"canterbury","ecan","lowland","Rural",-43.3751033368526,172.632388763135,"23-Jun-2020","Rural",6,"Lowland"
"ecan-00083","SQ30445","otukaikino creek u/s dickeys rd","Overall",0.41,"A",0.591,"A","A","",0.0021654395842356,"A",0.00498867708061319,"A","A","",6,162,"D",1733,"DE",11.4754098360656,"C",32.7868852459016,"C","D","",42879,"canterbury","ecan","lowland","Urban",-43.4355809672572,172.634987541677,"23-Jun-2020","Rural",7,"Lowland"
"ecan-00084","SQ30782","kaituna stream off kaituna valley road","Overall",0.027,"A",0.3355,"A","A","",0.00314473369841252,"A",0.0103311428033491,"A","A","",6,291,"DE",2246.4,"DE",45.7142857142857,"E",58.5714285714286,"DE","E","",53639,"canterbury","ecan","lowland","Rural",-43.7564555430136,172.682471130228,"23-Jun-2020","Rural",16,"Lowland"
"ecan-00085","SQ30878","lii stream u/s pannetts rd","Overall",3.4,"C",4.1,"C","C","",0.00268096514745308,"A",0.0109398778564078,"A","A","",6,144,"D",1608.45,"DE",6.55737704918033,"B",29.5081967213115,"BC","D","",51426,"canterbury","ecan","lowland","Rural",-43.6949731028679,172.450465203507,"23-Jun-2020","Rural",9.04349708557,"Lowland"
"ecan-00086","SQ30916","selwyn river u/s coes ford bridge","Overall",5.9,"C",7.5,"C","C","",0.00277008310249308,"A",0.00660800787250606,"A","A","",6,162,"D",908.299999999995,"BC",8.33333333333333,"B",20,"BC","D","",51729,"canterbury","ecan","lowland","Rural",-43.6961298123559,172.412879789812,"23-Jun-2020","Rural",5,"Lowland"
"ecan-00088","SQ30928","selwyn river u/s whitecliffs rd","Overall",0.32,"A",0.58,"A","A","",0.002994080684558,"A",0.0055005500550055,"A","A","",6,56.5,"ABC",727,"BC",6.45161290322581,"B",12.9032258064516,"A","B","",43804,"canterbury","ecan","upland","Rural",-43.4613290495938,171.892979434991,"23-Jun-2020","Rural",299,"Upland"
"ecan-00091","SQ30976","boggy creek u/s lake road","Overall",NA,NA,NA,NA,NA," Need 30 values for overall median, have 15 Need 30 values for overall 95%ile, have 15",NA,NA,NA,NA,NA," Need 30 values for overall median, have 15 Need 30 values for overall 95%ile, have 15",NA,921,NA,2493,NA,73.6842105263158,NA,89.4736842105263,NA,NA," Need 60 values, have only 19",54187,"canterbury","ecan","lowland","Rural",-43.7655479551051,172.357850515526,"23-Jun-2020","Rural",7,"Lowland"
"ecan-00092","SQ30977","doyleston drain at drain rd recorder","Overall",NA,NA,NA,NA,NA," Need 30 values for overall median, have 15 Need 30 values for overall 95%ile, have 15",NA,NA,NA,NA,NA," Need 30 values for overall median, have 15 Need 30 values for overall 95%ile, have 15",NA,345,NA,2350,NA,47.3684210526316,NA,63.1578947368421,NA,NA," Need 60 values, have only 19",54170,"canterbury","ecan","lowland","Rural",-43.7709325765678,172.353396823308,"23-Jun-2020","Rural",16.5900001526,"Lowland"
"ecan-00093","SQ30992","harts creek d/s lower lake rd","Overall",7.1,"D",8.3,"C","D","",0.00287026406429392,"A",0.00720444791260242,"A","A","",6,326,"DE",1779.45,"DE",32.7868852459016,"E",57.3770491803279,"DE","E","",55397,"canterbury","ecan","lowland","Rural",-43.7972389587475,172.338616217212,"23-Jun-2020","Rural",6,"Lowland"
"ecan-00094","SQ31018","rakaia river north bank d/s sh1","Overall",0.0485,"A",0.107,"A","A","",0.00419815281276238,"A",0.00932807987299887,"A","A","",6,108,"ABC",1986,"DE",8.06451612903226,"B",22.5806451612903,"BC","D","",53267,"canterbury","ecan","lowland","Rural",-43.7397115223236,172.043162753025,"23-Jun-2020","Rural",102,"Lowland"
"ecan-00095","SQ31020","rakaia river gorge 50m d/s recorder","Overall",0.0565,"A",0.091,"A","A","",0.00359759897797131,"A",0.0055005500550055,"A","A","",6,15.5,"ABC",64,"ABC",3.2258064516129,"A",4.83870967741935,"A","A","",46130,"canterbury","ecan","upland","Rural",-43.5180350275828,171.657604831457,"23-Jun-2020","Forest",288,"Upland"
"ecan-00097","SQ32872","halswell river u/s mccartneys bridge","Overall",2.9,"C",3.7,"C","C","",0.0185,"A",0.0482262069821823,"A","A","",6,488,"DE",2019.8,"DE",45.9016393442623,"E",83.6065573770492,"DE","E","",51076,"canterbury","ecan","lowland","Rural",-43.6843103268173,172.526588768498,"23-Jun-2020","Rural",3.99999642372,"Lowland"
"ecan-00100","SQ33055","okuti river u/s kinloch road","Overall",NA,NA,NA,NA,NA," Need 30 values for overall median, have 18 Need 30 values for overall 95%ile, have 18",NA,NA,NA,NA,NA," Need 30 values for overall median, have 18 Need 30 values for overall 95%ile, have 18",NA,461,NA,2391.6,NA,45.4545454545455,NA,68.1818181818182,NA,NA," Need 60 values, have only 22",54952,"canterbury","ecan","lowland","Rural",-43.7874056111727,172.795547156479,"23-Jun-2020","Rural",17.297990799,"Lowland"
"ecan-00101","SQ33056","okana river u/s sh75","Overall",0.162,"A",0.4595,"A","A","",0.0033288948069241,"A",0.0156929388299595,"A","A","",6,387,"DE",1733,"DE",36.5079365079365,"E",65.0793650793651,"DE","E","",54065,"canterbury","ecan","lowland","Rural",-43.7649802686936,172.796801013942,"23-Jun-2020","Rural",56,"Lowland"
"ecan-00102","SQ33270","kowhai river 100m u/s sh1","Overall",0.099,"A",0.2985,"A","A","",0.00513347022587269,"A",0.0150354799839336,"A","A","",6,34,"ABC",524,"ABC",4.6875,"A",9.375,"A","A","",9676,"canterbury","ecan","lowland","Rural",-42.4154852651802,173.631868766433,"23-Jun-2020","Forest",2,"Lowland"
"ecan-00103","SQ33273","lyell creek u/s sh1","Overall",0.49,"A",1.147,"A","A","",0.0223649796029903,"A",0.0547377352355404,"B","B","",6,596,"DE",2662,"DE",51.5625,"E",68.75,"DE","E","",9368,"canterbury","ecan","lowland","Urban",-42.3991108957209,173.679833150177,"23-Jun-2020","Rural",1,"Lowland"
"ecan-00104","SQ33962","waipara river at laidmore rd","Overall",0.012,"A",0.58,"A","A","",0.00527525360726071,"A",0.0140449438202247,"A","A","",6,55.5,"ABC",816,"BC",8.06451612903226,"B",14.5161290322581,"A","B","",29881,"canterbury","ecan","upland","Rural",-43.0594437966749,172.589733664695,"23-Jun-2020","Rural",214,"Upland"
"ecan-00106","SQ34191","taranaki creek u/s preeces rd","Overall",NA,NA,NA,NA,NA," Need 30 values for overall median, have 17 Need 30 values for overall 95%ile, have 17",NA,NA,NA,NA,NA," Need 30 values for overall median, have 17 Need 30 values for overall 95%ile, have 17",NA,308,NA,2033.4,NA,23.8095238095238,NA,61.9047619047619,NA,NA," Need 60 values, have only 21",38534,"canterbury","ecan","lowland","Rural",-43.3048006696495,172.688770481981,"23-Jun-2020","Rural",6,"Lowland"
"ecan-00107","SQ34412","warren creek u/s rorrisons road","Overall",NA,NA,NA,NA,NA," Need 30 values for overall median, have 18 Need 30 values for overall 95%ile, have 18",NA,NA,NA,NA,NA," Need 30 values for overall median, have 18 Need 30 values for overall 95%ile, have 18",NA,366,NA,2218.4,NA,31.8181818181818,NA,72.7272727272727,NA,NA," Need 60 values, have only 22",9200,"canterbury","ecan","lowland","Rural",-42.3919663301672,173.672956353846,"23-Jun-2020","Rural",6,"Lowland"
"ecan-00109","SQ34538","lee river u/s brooklands farm bridge","Overall",2.75,"C",4.9,"C","C","",0.00202101859337106,"A",0.00222915737851092,"A","A","",6,142,"D",823.749999999994,"BC",8.19672131147541,"B",22.9508196721311,"BC","D","",57809,"canterbury","ecan","lowland","Rural",-43.8555454576627,172.281227061587,"23-Jun-2020","Rural",9,"Lowland"
"ecan-00110","SQ34540","waikekewai creek u/s gullivers rd","Overall",4,"C",7,"C","C","",0.00212765957446809,"A",0.00778355916021497,"A","A","",6,105,"ABC",2662,"DE",11.4754098360656,"C",31.1475409836066,"C","D","",57433,"canterbury","ecan","lowland","Rural",-43.8537083711891,172.356385515877,"23-Jun-2020","Rural",1,"Lowland"
"ecan-00111","SQ34557","middle creek u/s beach rd","Overall",NA,NA,NA,NA,NA," Need 30 values for overall median, have 19 Need 30 values for overall 95%ile, have 19",NA,NA,NA,NA,NA," Need 30 values for overall median, have 19 Need 30 values for overall 95%ile, have 19",NA,225,NA,1831.3,NA,26.0869565217391,NA,43.4782608695652,NA,NA," Need 60 values, have only 23",8543,"canterbury","ecan","lowland","Rural",-42.3669867738309,173.684799562882,"23-Jun-2020","Rural",12.0100002289,"Lowland"
"ecan-00112","SQ34580","hawkins river u/s deans road","Overall",2.3,"B",3.325,"B","B","",0.00205086136177194,"A",0.0103465631517523,"A","A","",NA,112,NA,1356.25,NA,8.7719298245614,NA,19.2982456140351,NA,NA," Need 60 values, have only 57",42108,"canterbury","ecan","upland","Rural",-43.4143966925868,172.033991084003,"23-Jun-2020","Rural",269,"Upland"
"ecan-00113","SQ34646","saltwater creek u/s factory rd","Overall",0.32,"A",0.8275,"A","A","",0.00381679389312977,"A",0.0357315926202713,"A","A","",6,118,"ABC",2649.9,"DE",14.2857142857143,"C",23.8095238095238,"BC","D","",36924,"canterbury","ecan","lowland","Rural",-43.2549060346199,172.688681951739,"23-Jun-2020","Rural",10,"Lowland"
"ecan-00114","SQ34704","waiau river u/s leslie hills road","Overall",0.039,"A",0.1272,"A","A","",0.00338304904734438,"A",0.00591462905783194,"A","A","",6,33.5,"ABC",131.6,"ABC",0,"A",1.5625,"A","A","",17244,"canterbury","ecan","upland","Rural",-42.6882154542009,172.799009745481,"23-Jun-2020","Forest",238,"Upland"
"ecan-00115","SQ34705","waiau river u/s waiau bridge","Overall",0.08,"A",0.348,"A","A","",0.00374826073958186,"A",0.0101478751691001,"A","A","",NA,117,NA,397.6,NA,0,NA,21.0526315789474,NA,NA," Need 60 values, have only 38",15966,"canterbury","ecan","lowland","Rural",-42.6543597722288,173.03486350283,"23-Jun-2020","Rural",134,"Lowland"
"ecan-00116","SQ34706","waiau river u/s sh1","Overall",0.275,"A",1.026,"A","A","",0.00422854829735223,"A",0.00992288456759443,"A","A","",6,87.5,"ABC",736.499999999999,"BC",6.25,"B",17.1875,"A","B","",17847,"canterbury","ecan","lowland","Rural",-42.7191671647482,173.284200534323,"23-Jun-2020","Rural",26,"Lowland"
"ecan-00117","SQ10005","omarama stream sh8","Overall",0.23,"A",0.449,"A","A","",0.00205846027171676,"A",0.00265349929798034,"A","A","",6,79,"ABC",685.1,"BC",7.93650793650794,"B",17.4603174603175,"A","B","",16886,"canterbury","ecan","upland","Forest",-44.4898317092287,169.957668950886,"23-Jun-2020","Forest",424,"Upland"
"ecan-00118","SQ10160","maerewhenua river sh83","Overall",0.157,"A",0.36,"A","A","",0.00336473755047106,"A",0.00898400126459063,"A","A","",6,123,"ABC",2662,"DE",17.741935483871,"C",29.0322580645161,"BC","D","",22896,"canterbury","ecan","lowland","Rural",-44.8564982075111,170.689990017747,"23-Jun-2020","Rural",140,"Lowland"
"ecan-00119","SQ10167","otiake river mt bell station","Overall",0.0085,"A",0.0574,"A","A","",0.00340176354827542,"A",0.005,"A","A","",NA,13.5,NA,379,NA,2.08333333333333,NA,4.16666666666667,NA,NA," Need 60 values, have only 48",22285,"canterbury","ecan","upland","Rural",-44.8177079794271,170.509193269944,"23-Jun-2020","Forest",269,"Upland"
"ecan-00121","SQ10174","penticotico stream sh83","Overall",1.695,"B",3.4,"B","B","",0.00204331834899877,"A",0.00685714285714286,"A","A","",6,113,"ABC",1733,"DE",14.5161290322581,"C",24.1935483870968,"BC","D","",22215,"canterbury","ecan","lowland","Rural",-44.8159015795211,170.636526011416,"23-Jun-2020","Forest",122,"Lowland"
"ecan-00123","SQ10275","mary burn d/s sh8","Overall",0.023,"A",0.12085,"A","A","",0.00289687137891078,"A",0.0121777829152699,"A","A","",6,68,"ABC",548,"BC",6.34920634920635,"B",12.6984126984127,"A","B","",10147,"canterbury","ecan","upland","Rural",-44.1748838871789,170.323268662045,"23-Jun-2020","Forest",517,"Upland"
"ecan-00124","SQ10301","otematata river sh83","Overall",0.001,"A",0.01285,"A","A","",0.00248152709359606,"A",0.0043859649122807,"A","A","",6,9,"ABC",93.6999999999998,"ABC",0,"A",1.58730158730159,"A","A","",19343,"canterbury","ecan","upland","Rural",-44.6045386487108,170.202876326489,"23-Jun-2020","Forest",267,"Upland"
"ecan-00127","SQ22030","taitarakihi creek sh1","Overall",0.031,"A",0.469,"A","A","",0.0404079117801876,"B",0.8171589404859,"C","C","",6,116,"ABC",2649.9,"DE",26.984126984127,"D",38.0952380952381,"D","D","",65906,"canterbury","ecan","lowland","Urban",-44.3733473973493,171.24138452967,"23-Jun-2020","Urban",13,"Lowland"
"ecan-00128","SQ26368","forks stream u/s sh8","Overall",0.001,"A",0.006,"A","A","",0.0027027027027027,"A",0.00329208988015178,"A","A","",6,1,"ABC",55.6499999999999,"ABC",1.58730158730159,"A",1.58730158730159,"A","A","",7097,"canterbury","ecan","upland","Rural",-44.000725375594,170.411869590627,"23-Jun-2020","Forest",781,"Upland"
"ecan-00129","SQ26369","irishman creek u/s sh8","Overall",0.001,"A",0.00884999999999999,"A","A","",0.00236518448438978,"A",0.00292397660818713,"A","A","",6,25,"ABC",320.65,"ABC",4.76190476190476,"A",9.52380952380952,"A","A","",8583,"canterbury","ecan","upland","Rural",-44.0873506144388,170.348796015335,"23-Jun-2020","Forest",642,"Upland"
"ecan-00130","SQ30011","leader river u/s sh1","Overall",0.01,"A",1.056,"A","A","",0.0115207373271889,"A",0.025,"A","A","",6,55,"ABC",939.899999999999,"BC",9.375,"B",15.625,"A","B","",17313,"canterbury","ecan","lowland","Rural",-42.6875872916473,173.302487731526,"23-Jun-2020","Rural",50,"Lowland"
"ecan-00134","SQ30184","ashley river u/s ashley gorge rd","Overall",0.021,"A",0.11875,"A","A","",0.00474820143884892,"A",0.0113636363636364,"A","A","",6,19,"ABC",169.45,"ABC",1.58730158730159,"A",3.17460317460317,"A","A","",36021,"canterbury","ecan","upland","Forest",-43.2279572476556,172.228581147845,"23-Jun-2020","Forest",245,"Upland"
"ecan-00135","SQ34626","living springs stream at allendale","Overall",0.199,"A",0.54,"A","A","",0.0140816326530612,"A",0.0244274809160305,"A","A","",6,1483.5,"DE",2662,"DE",79.0322580645161,"E",88.7096774193548,"DE","E","",49920,"canterbury","ecan","lowland","Rural",-43.6409773453805,172.649371923523,"23-Jun-2020","Rural",0,"Lowland"
"ecan-00136","SQ34711","conway river u/s sh1","Overall",0.176,"A",0.743,"A","A","",0.00558505996459471,"A",0.0151623551539419,"A","A","",6,36.5,"ABC",176.5,"ABC",3.17460317460317,"A",4.76190476190476,"A","A","",14759,"canterbury","ecan","lowland","Rural",-42.5991126280267,173.417846725885,"23-Jun-2020","Forest",32,"Lowland"
"ecan-00137","SQ34865","waitohi river 1.6km u/s hurunui confluence","Overall",1.645,"B",3,"B","B","",0.00237193572459261,"A",0.0120397249809014,"A","A","",6,108,"ABC",796.649999999999,"BC",9.23076923076923,"B",21.5384615384615,"BC","B","",23215,"canterbury","ecan","upland","Forest",-42.8762436099963,172.749083166737,"23-Jun-2020","Forest",200,"Upland"
"ecan-00138","SQ34866","st leonards drain at recorder","Overall",5.7,"C",9,"C","C","",0.00248138957816377,"A",0.0444036445077878,"A","A","",6,116,"ABC",2662,"DE",20,"CD",26.1538461538462,"BC","D","",21717,"canterbury","ecan","lowland","Rural",-42.8325038265467,172.903096631837,"23-Jun-2020","Rural",283,"Upland"
"ecan-00139","SQ34869","mason river d/s sh70","Overall",0.0315,"A",0.3,"A","A","",0.00735186081485195,"A",0.0147599399849963,"A","A","",6,78.5,"ABC",536.7,"ABC",6.25,"B",14.0625,"A","B","",15738,"canterbury","ecan","upland","Rural",-42.6347062112004,173.064848844442,"23-Jun-2020","Rural",163,"Upland"
"ecan-00140","SQ34884","zephyr stream u/s governors bay road","Overall",0.076,"A",0.5275,"A","A","",0.00253821822234534,"A",0.00351072917475609,"A","A","",NA,27,NA,2168.5,NA,8.88888888888889,NA,15.5555555555556,NA,NA," Need 60 values, have only 45",49190,"canterbury","ecan","lowland","Forest",-43.6193323981988,172.649768621716,"23-Jun-2020","Rural",64,"Lowland"
"ecan-00141","SQ34903","north brook u/s marsh rd","Overall",NA,NA,NA,NA,NA," Need 30 values for overall median, have 17 Need 30 values for overall 95%ile, have 17",NA,NA,NA,NA,NA," Need 30 values for overall median, have 17 Need 30 values for overall 95%ile, have 17",NA,272,NA,1999.8,NA,19.047619047619,NA,57.1428571428571,NA,NA," Need 60 values, have only 21",39122,"canterbury","ecan","lowland","Rural",-43.3224069854104,172.623152639909,"23-Jun-2020","Rural",11,"Lowland"
"ecan-00145","SQ26931","bush stream rangitata gorge road, at bridge","Overall",0.01,"A",0.06465,"A","A","",0.00274725274725275,"A",0.00425295023522908,"A","A","",6,0.5,"ABC",215.249999999999,"ABC",1.58730158730159,"A",3.17460317460317,"A","A","",49836,"canterbury","ecan","upland","Rural",-43.6217877106542,170.878482539016,"23-Jun-2020","Forest",605,"Upland"
"ecan-00146","SQ26932","deep stream access road near tui house","Overall",0.07,"A",0.1917,"A","A","",0.00244498777506112,"A",0.0045648235514286,"A","A","",6,41,"ABC",556.749999999998,"BC",4.61538461538462,"A",4.61538461538462,"A","B","",51134,"canterbury","ecan","upland","Rural",-43.6625053791851,170.928847143554,"23-Jun-2020","Forest",452,"Upland"
"ecan-00148","SQ30390","south brook u/s marsh rd","Overall",NA,NA,NA,NA,NA," Need 30 values for overall median, have 17 Need 30 values for overall 95%ile, have 17",NA,NA,NA,NA,NA," Need 30 values for overall median, have 17 Need 30 values for overall 95%ile, have 17",NA,128,NA,2225.2,NA,19.047619047619,NA,38.0952380952381,NA,NA," Need 60 values, have only 21",39145,"canterbury","ecan","lowland","Urban",-43.3250996233005,172.602311594076,"23-Jun-2020","Rural",17,"Lowland"
"ecan-00149","SQ30707","aylmers valley stream opposite aubrey st","Overall",0.335,"A",0.698,"A","A","",0.099866844207723,"B",0.138376383763838,"B","B","",6,148,"D",1899.4,"DE",17.1875,"C",35.9375,"D","D","",55880,"canterbury","ecan","lowland","Urban",-43.8103151997242,172.961527112424,"23-Jun-2020","Rural",59,"Lowland"
"ecan-00151","SQ30945","waireka/waianiwaniwa river u/s auchenflower rd","Overall",0.8,"A",2.325,"B","B","",0.00678733031674208,"A",0.0222081405287512,"A","A","",6,579,"DE",2662,"DE",54.0983606557377,"E",75.4098360655738,"DE","E","",43114,"canterbury","ecan","upland","Rural",-43.4349392519096,171.985995621527,"23-Jun-2020","Rural",255,"Upland"
"ecan-00152","SQ32732","french farm stream at recorder","Overall",0.169,"A",0.339,"A","A","",0.00359759897797131,"A",0.0116918844566713,"A","A","",6,365,"DE",2662,"DE",38.0952380952381,"E",53.968253968254,"DE","E","",54535,"canterbury","ecan","lowland","Rural",-43.7776260788377,172.905677484553,"23-Jun-2020","Rural",14,"Lowland"
"ecan-00153","SQ33148","conway river u/s inland road","Overall",0.175,"A",0.559,"A","A","",0.00562143564957127,"A",0.0179573319550923,"A","A","",6,29,"ABC",363.05,"ABC",3.17460317460317,"A",6.34920634920635,"A","A","",10916,"canterbury","ecan","upland","Rural",-42.462460042992,173.273456191827,"23-Jun-2020","Forest",421,"Upland"
"ecan-00154","SQ33899","okarahia stream u/s sh1","Overall",0.1565,"A",0.541,"A","A","",0.00425894378194208,"A",0.0112275132275132,"A","A","",6,12.5,"ABC",117.9,"ABC",0,"A",0,"A","A","",13190,"canterbury","ecan","lowland","Forest",-42.5420066479243,173.450541729351,"23-Jun-2020","Rural",135,"Lowland"
"ecan-00155","SQ34569","te wharau stream u/s charteris bay road","Overall",0.18,"A",1.147,"A","A","",0.00381679389312977,"A",0.0137705146451427,"A","A","",6,411,"DE",2432.1,"DE",37.7049180327869,"E",62.2950819672131,"DE","E","",50285,"canterbury","ecan","lowland","Urban",-43.6541222165407,172.702475051359,"23-Jun-2020","Rural",0,"Lowland"
"ecan-00156","SQ35156","wainui stream u/s wainui main rd","Overall",0.235,"A",0.54,"A","A","",0.0804289544235925,"B",0.13679076655942,"B","B","",6,366,"DE",2662,"DE",41.9354838709677,"E",53.2258064516129,"DE","E","",55894,"canterbury","ecan","lowland","Rural",-43.8152149214658,172.902701061588,"23-Jun-2020","Rural",44,"Lowland"
"ecan-00157","SQ35157","takamatua stream u/s sh75","Overall",NA,NA,NA,NA,NA," Need 30 values for overall median, have 17 Need 30 values for overall 95%ile, have 17",NA,NA,NA,NA,NA," Need 30 values for overall median, have 17 Need 30 values for overall 95%ile, have 17",NA,649,NA,2662,NA,47.6190476190476,NA,66.6666666666667,NA,NA," Need 60 values, have only 21",54693,"canterbury","ecan","lowland","Rural",-43.7821941017146,172.970424245678,"23-Jun-2020","Rural",13,"Lowland"
"ecan-00160","SQ35172","kahutara river at dairy farm rd","Overall",0.095,"A",0.526,"A","A","",0.00527426160337552,"A",0.013573387657037,"A","A","",6,30,"ABC",254.05,"ABC",3.17460317460317,"A",3.17460317460317,"A","A","",9520,"canterbury","ecan","lowland","Rural",-42.4081575233949,173.541717802496,"23-Jun-2020","Forest",180,"Upland"
"ecan-00161","SQ35173","blue duck creek above sh1","Overall",0.23,"A",0.7225,"A","A","",0.00843170320404721,"A",0.0136330095273678,"A","A","",NA,43,NA,2121.2,NA,12.0689655172414,NA,17.2413793103448,NA,NA," Need 60 values, have only 58",6067,"canterbury","ecan","lowland","Forest",-42.2791582986772,173.768140444263,"23-Jun-2020","Rural",192,"Upland"
"ecan-00162","SQ35174","hapuku river at sh1","Overall",0.087,"A",0.34,"A","A","",0.00792013694819077,"A",0.0268041237113402,"A","A","",6,7,"ABC",342.349999999999,"ABC",3.07692307692308,"A",4.61538461538462,"A","A","",7079,"canterbury","ecan","lowland","Rural",-42.3113410056165,173.717602424253,"23-Jun-2020","Forest",63,"Lowland"
"ecan-00163","SQ35234","barrys bay stream u/s barrys bay valley rd","Overall",NA,NA,NA,NA,NA," Need 30 values for overall median, have 18 Need 30 values for overall 95%ile, have 18",NA,NA,NA,NA,NA," Need 30 values for overall median, have 18 Need 30 values for overall 95%ile, have 18",NA,491.5,NA,2565.2,NA,50,NA,63.6363636363636,NA,NA," Need 60 values, have only 22",53930,"canterbury","ecan","lowland","Rural",-43.7607737262461,172.91094265321,"23-Jun-2020","Rural",36,"Lowland"
"ecan-00164","SQ35235","pawsons stream u/s pawsons valley road","Overall",NA,NA,NA,NA,NA," Need 30 values for overall median, have 17 Need 30 values for overall 95%ile, have 17",NA,NA,NA,NA,NA," Need 30 values for overall median, have 17 Need 30 values for overall 95%ile, have 17",NA,1414,NA,2662,NA,80.9523809523809,NA,85.7142857142857,NA,NA," Need 60 values, have only 21",53120,"canterbury","ecan","lowland","Rural",-43.740475723204,172.933227817536,"23-Jun-2020","Rural",62,"Lowland"
"ecan-00168","SQ35080","ashburton river u/s mouth - nth bank","Overall",NA,NA,NA,NA,NA," Need 30 values for overall median, have 17 Need 30 values for overall 95%ile, have 17",NA,NA,NA,NA,NA," Need 30 values for overall median, have 17 Need 30 values for overall 95%ile, have 17",NA,345,NA,2577.3,NA,38.0952380952381,NA,61.9047619047619,NA,NA," Need 60 values, have only 21",61477,"canterbury","ecan","lowland","Rural",-44.051088903944,171.804718001994,"23-Jun-2020","Rural",21,"Lowland"
"ecan-00169","SQ35873","ashburton river south branch at quarry road","Overall",0.09,"A",0.278,"A","A","",0.0027027027027027,"A",0.00381679389312977,"A","A","",6,45,"ABC",482.95,"ABC",3.17460317460317,"A",7.93650793650794,"A","A","",50823,"canterbury","ecan","upland","Rural",-43.6600406392925,171.296705817493,"23-Jun-2020","Forest",472,"Upland"
"ecan-00170","SQ35874","gentleman smith stream at hakatere-heron road","Overall",0.65,"A",0.987,"A","A","",0.00268096514745308,"A",0.00402576489533011,"A","A","",6,29,"ABC",327,"ABC",3.17460317460317,"A",6.34920634920635,"A","A","",46874,"canterbury","ecan","upland","Rural",-43.5374144020876,171.184322593976,"23-Jun-2020","Rural",649,"Upland"
"ecan-00171","SQ35875","lambies stream at ashburton gorge road","Overall",0.003,"A",0.0188,"A","A","",0.00359712230215827,"A",0.00540513662427172,"A","A","",6,71,"ABC",515.55,"ABC",3.17460317460317,"A",11.1111111111111,"A","A","",49582,"canterbury","ecan","upland","Rural",-43.6173618848878,171.181902258707,"23-Jun-2020","Forest",575,"Upland"
"ecan-00172","SQ34417","pahau river at recorder","Overall",1.6,"B",2.985,"B","B","",0.00306748466257669,"A",0.00883047433849571,"A","A","",6,59,"ABC",924.949999999998,"BC",7.69230769230769,"B",10.7692307692308,"A","B","",21508,"canterbury","ecan","lowland","Rural",-42.8288704887752,172.897317873205,"23-Jun-2020","Rural",121,"Lowland"
"ecan-00173","SQ34418","dry stream above hurunui confl.","Overall",NA,NA,NA,NA,NA," Need 30 values for overall median, have 17 Need 30 values for overall 95%ile, have 17",NA,NA,NA,NA,NA," Need 30 values for overall median, have 17 Need 30 values for overall 95%ile, have 17",NA,108,NA,2662,NA,14.2857142857143,NA,19.047619047619,NA,NA," Need 60 values, have only 21",21729,"canterbury","ecan","lowland","Rural",-42.8336805864753,172.860187248303,"23-Jun-2020","Rural",149,"Lowland"
"ecan-00174","SQ35872","mandamus river at tekoa road","Overall",0.066,"A",0.24,"A","A","",0.0033288948069241,"A",0.00677305644813199,"A","A","",6,25,"ABC",345,"ABC",3.07692307692308,"A",7.69230769230769,"A","A","",20327,"canterbury","ecan","upland","Rural",-42.7877300364061,172.556570509842,"23-Jun-2020","Forest",416,"Upland"
"ecan-00175","SQ30215","taranaki creek 20m u/s gressons rd","Overall",1.27,"B",2.5,"B","B","",0.00184979652238254,"A",0.00626049933862434,"A","A","",6,770,"DE",2662,"DE",58.7301587301587,"E",77.7777777777778,"DE","E","",38550,"canterbury","ecan","lowland","Rural",-43.304987806574,172.64219236937,"23-Jun-2020","Rural",17,"Lowland"
"ecan-00176","SQ33274","lyell creek at mill road","Overall",NA,NA,NA,NA,NA," Need 30 values for overall median, have 19 Need 30 values for overall 95%ile, have 19",NA,NA,NA,NA,NA," Need 30 values for overall median, have 19 Need 30 values for overall 95%ile, have 19",NA,517,NA,2162.95,NA,43.4782608695652,NA,69.5652173913043,NA,NA," Need 60 values, have only 23",8756,"canterbury","ecan","lowland","Rural",-42.3765111944835,173.678720369756,"23-Jun-2020","Rural",10,"Lowland"
"ecan-00177","SQ21044","north branch ohapi creek guild rd","Overall",NA,NA,NA,NA,NA," Need 30 values for overall median, have 18 Need 30 values for overall 95%ile, have 18",NA,NA,NA,NA,NA," Need 30 values for overall median, have 18 Need 30 values for overall 95%ile, have 18",NA,246,NA,2015.6,NA,36.3636363636364,NA,50,NA,NA," Need 60 values, have only 22",63905,"canterbury","ecan","lowland","Rural",-44.2020107208561,171.345405334911,"23-Jun-2020","Rural",24,"Lowland"
"ecan-00178","SQ21045","ohapi creek guild rd","Overall",NA,NA,NA,NA,NA," Need 30 values for overall median, have 18 Need 30 values for overall 95%ile, have 18",NA,NA,NA,NA,NA," Need 30 values for overall median, have 17 Need 30 values for overall 95%ile, have 17",NA,707,NA,2117.2,NA,59.0909090909091,NA,86.3636363636364,NA,NA," Need 60 values, have only 22",63878,"canterbury","ecan","lowland","Forest",-44.2152131930692,171.32631762896,"23-Jun-2020","Rural",19,"Lowland"
"ecan-00179","SQ21046","ohapi creek south branch guild rd","Overall",NA,NA,NA,NA,NA," Need 30 values for overall median, have 18 Need 30 values for overall 95%ile, have 18",NA,NA,NA,NA,NA," Need 30 values for overall median, have 17 Need 30 values for overall 95%ile, have 17",NA,563.5,NA,2662,NA,54.5454545454545,NA,68.1818181818182,NA,NA," Need 60 values, have only 22",64205,"canterbury","ecan","lowland","Forest",-44.2159607438904,171.325095232981,"23-Jun-2020","Rural",19,"Lowland"
"ecan-00180","SQ20450","pareora river sh1","Overall",0.42,"A",1.988,"B","B","",0.00297973778307509,"A",0.0120622366512399,"A","A","",NA,19.5,NA,2072.8,NA,8.7719298245614,NA,10.5263157894737,NA,NA," Need 60 values, have only 57",66888,"canterbury","ecan","lowland","Rural",-44.4914282600275,171.192857999736,"23-Jun-2020","Rural",14,"Lowland"
"ecan-00181","SQ20175","rangitata river mouth","Overall",0.29,"A",0.838,"A","A","",0.00340136054421769,"A",0.00755153810273328,"A","A","",6,140,"D",1515.05,"DE",18.4615384615385,"C",36.9230769230769,"D","D","",63572,"canterbury","ecan","lowland","Rural",-44.1850131926087,171.508910788281,"23-Jun-2020","Rural",1,"Lowland"
"ecan-00182","SQ20541","petries drain canal road","Overall",NA,NA,NA,NA,NA," Need 30 values for overall median, have 18 Need 30 values for overall 95%ile, have 18",NA,NA,NA,NA,NA," Need 30 values for overall median, have 18 Need 30 values for overall 95%ile, have 18",NA,147.5,NA,2662,NA,13.6363636363636,NA,36.3636363636364,NA,NA," Need 60 values, have only 22",63922,"canterbury","ecan","lowland","Rural",-44.2081917534209,171.379688390064,"23-Jun-2020","Rural",19,"Lowland"
"ecan-00183","SQ21254","waikakahi stream te maiharoa road","Overall",3.15,"C",6.58,"C","C","",0.00571073931909212,"A",0.0508788159111933,"B","B","",6,249.5,"D",2376.6,"DE",26.5625,"D",51.5625,"DE","D","",23955,"canterbury","ecan","lowland","Rural",-44.9163014487447,171.09499556633,"23-Jun-2020","Rural",22,"Lowland"
"ecan-00184","SQ20785","tekapo river at steel bridge","Overall",0.003,"A",0.05485,"A","A","",0.00309789343246593,"A",0.00809220691062496,"A","A","",6,17,"ABC",215.199999999999,"ABC",0,"A",3.17460317460317,"A","A","",12774,"canterbury","ecan","upland","Rural",-44.3084801868937,170.234077755284,"23-Jun-2020","Forest",379,"Upland"
"ecan-00185","SQ35119","twizel river d/s black stilt reserve","Overall",0.013,"A",0.13095,"A","A","",0.00246305418719212,"A",0.00372358754985086,"A","A","",6,17,"ABC",131.25,"ABC",0,"A",3.17460317460317,"A","A","",13202,"canterbury","ecan","upland","Rural",-44.3306879606976,170.186715283422,"23-Jun-2020","Forest",393,"Upland"
"ecan-00186","SQ35792","quailburn quailburn road","Overall",0.016,"A",0.10225,"A","A","",0.00218627022299956,"A",0.00324241064033301,"A","A","",6,131,"D",545,"BC",4.76190476190476,"A",23.8095238095238,"BC","D","",15335,"canterbury","ecan","upland","Rural",-44.4190472242949,169.900485924474,"23-Jun-2020","Rural",526,"Upland"
"ecan-00187","SQ35876","ahuriri river ben omar","Overall",0.048,"A",0.1346,"A","A","",0.00257731958762887,"A",0.00493096646942801,"A","A","",6,72,"ABC",285.9,"ABC",1.5625,"A",4.6875,"A","A","",16923,"canterbury","ecan","upland","Rural",-44.4883902984972,170.058049786652,"23-Jun-2020","Rural",354,"Upland"
"ecan-00188","SQ35871","otekaieke river special school road","Overall",0.069,"A",0.23,"A","A","",0.00355618776671408,"A",0.00707863417055615,"A","A","",6,26,"ABC",913.449999999999,"BC",9.52380952380952,"B",12.6984126984127,"A","B","",23435,"canterbury","ecan","upland","Rural",-44.8802143417114,170.53204048668,"23-Jun-2020","Rural",275,"Upland"
"ecan-00189","SQ34905","cam river 50m d/s marsh rd","Overall",NA,NA,NA,NA,NA," Need 30 values for overall median, have 17 Need 30 values for overall 95%ile, have 17",NA,NA,NA,NA,NA," Need 30 values for overall median, have 17 Need 30 values for overall 95%ile, have 17",NA,1046,NA,2662,NA,76.1904761904762,NA,90.4761904761905,NA,NA," Need 60 values, have only 21",38979,"canterbury","ecan","lowland","Rural",-43.3221510815768,172.630218615612,"23-Jun-2020","Rural",9,"Lowland"
"ecan-00190","SQ35236","purau stream 100m u/s purau ave","Overall",NA,NA,NA,NA,NA," Need 30 values for overall median, have 17 Need 30 values for overall 95%ile, have 17",NA,NA,NA,NA,NA," Need 30 values for overall median, have 17 Need 30 values for overall 95%ile, have 17",NA,214,NA,2073.3,NA,23.8095238095238,NA,52.3809523809524,NA,NA," Need 60 values, have only 21",49826,"canterbury","ecan","lowland","Urban",-43.6398887786581,172.750504758188,"23-Jun-2020","Rural",2,"Lowland"
"ecan-00191","SQ35545","teddington stream off gebbies pass road","Overall",NA,NA,NA,NA,NA," Need 30 values for overall median, have 14 Need 30 values for overall 95%ile, have 14",NA,NA,NA,NA,NA," Need 30 values for overall median, have 14 Need 30 values for overall 95%ile, have 14",NA,633,NA,2662,NA,66.6666666666667,NA,77.7777777777778,NA,NA," Need 60 values, have only 18",50899,"canterbury","ecan","lowland","Rural",-43.6738041516159,172.656177282696,"23-Jun-2020","Rural",31,"Lowland"
"ecan-00192","SQ35818","clarence river over jacks pass","Overall",NA,NA,NA,NA,NA," Need 30 values for overall median, have 18 Need 30 values for overall 95%ile, have 18",NA,NA,NA,NA,NA," Need 30 values for overall median, have 18 Need 30 values for overall 95%ile, have 18",NA,5.5,NA,64.4,NA,0,NA,0,NA,NA," Need 60 values, have only 22",10805,"canterbury","ecan","upland","Rural",-42.4577108842469,172.841467731169,"23-Jun-2020","Forest",1093,"Upland"
"ecan-00193","SQ35798","hinds river lower beach road","Overall",7.05,"D",9.19,"C","D","",0.00302304532886493,"A",0.00739292964090183,"A","A","",6,76,"ABC",1664.3,"DE",14.0625,"C",21.875,"BC","D","",62422,"canterbury","ecan","lowland","Forest",-44.1049567805405,171.652852136689,"23-Jun-2020","Rural",9,"Lowland"
"ecan-00194","SQ26242","parakanoi drain lower beach road","Overall",NA,NA,NA,NA,NA," Need 30 values for overall median, have 25 Need 30 values for overall 95%ile, have 25",NA,NA,NA,NA,NA," Need 30 values for overall median, have 25 Need 30 values for overall 95%ile, have 25",NA,261,NA,2480.5,NA,37.1428571428571,NA,51.4285714285714,NA,NA," Need 60 values, have only 35",62020,"canterbury","ecan","lowland","Rural",-44.0857748989782,171.697862008791,"23-Jun-2020","Rural",20,"Lowland"
"ecan-00195","SQ35800","clarence river above river mouth","Overall",0.023,"A",0.14765,"A","A","",0.00843170320404721,"A",0.020316474637139,"A","A","",NA,15,NA,388.999999999999,NA,1.92307692307692,NA,5.76923076923077,NA,NA," Need 60 values, have only 52",3417,"canterbury","ecan","lowland","Rural",-42.1697064366688,173.925876618539,"23-Jun-2020","Rural",7,"Lowland"
"ecan-00240","CH1","Hurunui at Mandamus (NRWQN) (CH1)","Overall",NA,NA,NA,NA,NA,"n = 0 Insufficient  to calculate annual medians ",0.0017879397948423,"A",0.0042165727023415,"A","A","",6,23.8,"ABC",90.0899999999999,"ABC",0,"A",1.40845070422535,"A","A","",13020391,"canterbury","niwa","Upland","Forest",-42.7904052734375,172.541549682617,"2019-07-11","Forest",340,"Upland"
"ecan-00262","TK2","Opihi at Rockwood (NRWQN) (TK2)","Overall",NA,NA,NA,NA,NA,"n = 0 Insufficient  to calculate annual medians ",0.00355011993307936,"A",0.0117790781853282,"A","A","",5,83.7,"ABC",1732.9,"DE",13.3333333333333,"C",16.6666666666667,"A","D","",13063543,"canterbury","niwa","Upland","Rural",-44.1682624816895,170.941696166992,"2019-07-11","Rural",186,"Upland"
"ecan-10005","HEATH11","heathcote river at catherine street","Overall",1.5,"B",1.81,"B","B","",NA,NA,NA,NA,NA,"n = 0 No pH data available for NH4 adjustment, so NH4 cannot be judged against NOF standards. ",6,425,"DE",4489.99999999997,"DE",43.3333333333333,"E",66.6666666666667,"DE","E","",46901,"canterbury","ecan","lowland","Urban",-43.5532364348419,172.683104461899,"23-Jun-2020","Urban",2.64374089241,"Lowland"
"ecan-10026","SQ20203","orari river gorge","Overall",0.0445,"A",0.189,"A","A","",0.0865070316480704,"B",0.15,"B","B","",6,29,"ABC",411,"ABC",1.61290322580645,"A",11.2903225806452,"A","A","",59254,"canterbury","ecan","upland","Rural",-43.9271448534264,171.191418354195,"23-Jun-2020","Forest",283,"Upland"
"ecan-10028","CH4","Waimakariri above old HW Br. (NRWQN) (CH4)","Overall",NA,NA,NA,NA,NA,"n = 0 Insufficient  to calculate annual medians ",0.00165562913907285,"A",0.00564602835557722,"A","A","",5,80.7,"ABC",326.25,"ABC",0,"A",15,"A","A","",13042296,"canterbury","niwa","Lowland","Rural",-43.4172859191895,172.641754150391,"2019-07-11","Rural",6,"Lowland"
"ecan-10029","SQ20606","pareora river pareora huts","Overall",0.375,"A",1.27,"A","A","",0.00660612424538569,"A",0.0254411764705882,"A","A","",6,29.5,"ABC",2662,"DE",15,"C",18.3333333333333,"A","D","",66248,"canterbury","ecan","lowland","Rural",-44.4116398447393,171.057029185073,"23-Jun-2020","Rural",99,"Lowland"
"ecan-10086","SQ33476","lyell creek above mouth","Overall",NA,NA,NA,NA,NA," Need 30 values for overall median, have 18 Need 30 values for overall 95%ile, have 18",NA,NA,NA,NA,NA," Need 30 values for overall median, have 18 Need 30 values for overall 95%ile, have 18",NA,488,NA,2565.2,NA,40.9090909090909,NA,72.7272727272727,NA,NA," Need 60 values, have only 22",9368,"canterbury","ecan","lowland","Urban",-42.4039557526444,173.68424533371,"23-Jun-2020","Rural",1,"Lowland"
"es-00001","DN9","Waiau at Tuatapere (NRWQN) (DN9)","Overall",0.265,"A",0.52,"A","A","",0.00326530612244898,"A",0.00996055226824457,"A","A","",5,60,"ABC",2171.52,"DE",12.7118644067797,"C",17.7966101694915,"A","D","",15052505,"southland","niwa","lowland","Rural",-46.1302833557129,167.685806274414,"2019-07-11","Forest",22,"Lowland"
"es-00002","Mararoa River at Weir Road","mararoa river at weir road","Overall",0.375,"A",0.62,"A","A","",0.00306748466257669,"A",0.00554493776340292,"A","A","",6,40,"ABC",2515,"DE",8.45070422535211,"B",15.4929577464789,"A","D","",15029370,"southland","es","upland","Rural",-45.6061614579925,167.702255644554,"23-Jun-2020","Rural",227,"Upland"
"es-00003","Mararoa River at South Mavora Lake","mararoa river at south mavora lake","Overall",0.001,"A",0.0075,"A","A","",0.00239234449760766,"A",0.00279329608938547,"A","A","",6,5,"ABC",10,"ABC",0,"A",0,"A","A","",15016464,"southland","es","upland","Forest",-45.3158287755195,168.179275975,"23-Jun-2020","Forest",617,"Upland"
"es-00004","Aparima River at Dunrobin","aparima river at dunrobin","Overall",0.0235,"A",0.0995,"A","A","",0.00279329608938547,"A",0.00340136054421769,"A","A","",6,60,"ABC",697.499999999999,"BC",7.04225352112676,"B",15.4929577464789,"A","B","",15034889,"southland","es","upland","Forest",-45.737409990996,168.1203806593,"23-Jun-2020","Forest",311.5,"Upland"
"es-00006","Cascade Stream at Pourakino Valley Road","cascade stream at pourakino valley road","Overall",0.0195,"A",0.036,"A","A","",0.0021551724137931,"A",0.00279329608938547,"A","A","",6,110,"ABC",587.499999999999,"BC",5.63380281690141,"B",21.1267605633803,"BC","B","",15056487,"southland","es","lowland","Forest",-46.249498924569,167.935858078261,"23-Jun-2020","Forest",34,"Lowland"
"es-00008","Otautau Stream at Otautau-Tuatapere Road","otautau stream at otautau-tuatapere road","Overall",0.86,"A",2.95,"B","B","",0.0186602870813397,"A",0.0684856771858031,"B","B","",6,800,"DE",12000,"DE",59.1549295774648,"E",87.3239436619718,"DE","E","",15051985,"southland","es","lowland","Rural",-46.1266337620799,167.977089360567,"23-Jun-2020","Rural",68,"Lowland"
"es-00009","Oreti River at Three Kings","oreti river at three kings","Overall",0.028,"A",0.0655,"A","A","",0.00226244343891403,"A",0.00257731958762887,"A","A","",5,10,"ABC",150,"ABC",0,"A",3.33333333333333,"A","A","",15021776,"southland","es","upland","Rural",-45.4471272879787,168.136247769802,"23-Jun-2020","Forest",486,"Upland"
"es-00010","DN8","Oreti at Riverton HW Br. (NRWQN) (DN8)","Overall",NA,NA,NA,NA,NA,"n = 0 Insufficient  to calculate annual medians ",NA,NA,NA,NA,NA," Need 30 values for overall median, have 13 Need 30 values for overall 95%ile, have 13",NA,68.1,NA,2384.37,NA,16,NA,24,NA,NA," Need 60 values, have only 25",15057908,"southland","niwa","Lowland","Rural",-46.3262634277344,168.265930175781,"2019-07-11","Rural",9,"Lowland"
"es-00011","DN7","Oreti at Lumsden (NRWQN) (DN7)","Overall",0.62,"A",1.245,"A","A","",0.00239234449760766,"A",0.00365774772125844,"A","A","",5,50,"ABC",696.085,"BC",9.52380952380952,"B",14.2857142857143,"A","B","",15033324,"southland","niwa","upland","Rural",-45.7162437438965,168.428131103516,"2019-07-11","Rural",213,"Upland"
"es-00012","Cromel Stream at Selbie Road","cromel stream at selbie road","Overall",0.0075,"A",0.0215,"A","A","",0.00226244343891403,"A",0.00497737556561086,"A","A","",5,17.5,"ABC",175,"ABC",0,"A",1.66666666666667,"A","A","",15027427,"southland","es","upland","Forest",-45.5813773655988,168.37384442081,"23-Jun-2020","Forest",323,"Upland"
"es-00013","Irthing Stream at Ellis Road","irthing stream at ellis road","Overall",1.535,"B",3.15,"B","B","",0.00239234449760766,"A",0.00596359690228383,"A","A","",5,85,"ABC",3050,"DE",11.6666666666667,"C",16.6666666666667,"A","D","",15031719,"southland","es","upland","Rural",-45.6796047663668,168.425875807601,"23-Jun-2020","Rural",218,"Upland"
"es-00014","Winton Stream at Lochiel","winton stream at lochiel","Overall",1.62,"B",3.8,"C","C","",0.0713095931727045,"B",0.304047619047619,"B","B","",5,800,"DE",9500,"DE",73.3333333333333,"E",91.6666666666667,"DE","E","",15054215,"southland","es","lowland","Rural",-46.1994833846124,168.303033200888,"23-Jun-2020","Rural",34,"Lowland"
"es-00015","Makarewa River at Wallacetown","makarewa river at wallacetown","Overall",1.14,"B",2.2,"B","B","",0.0252577319587629,"A",0.0653707353635178,"B","B","",5,345,"DE",24500,"DE",33.3333333333333,"E",58.3333333333333,"DE","E","",15058243,"southland","es","lowland","Rural",-46.3297954257162,168.299116272918,"23-Jun-2020","Rural",10.5,"Lowland"
"es-00016","Dunsdale Stream at Dunsdale Reserve","dunsdale stream at dunsdale reserve","Overall",0.2,"A",0.36,"A","A","",0.00340136054421769,"A",0.00509224091155724,"A","A","",6,130,"ABC",584.5,"BC",5.79710144927536,"B",24.6376811594203,"BC","B","",15051163,"southland","es","lowland","Forest",-46.1347057505432,168.601870071154,"23-Jun-2020","Forest",161,"Upland"
"es-00017","Waikiwi Stream at North Road","waikiwi stream at north road","Overall",2.7,"C",4.765,"C","C","",0.0111731843575419,"A",0.0416533864541832,"A","A","",6,410,"DE",6550,"DE",43.6619718309859,"E",71.830985915493,"DE","E","",15058921,"southland","es","lowland","Rural",-46.3629448040163,168.34671453597,"23-Jun-2020","Rural",9.75,"Lowland"
"es-00018","Waihopai River u/s Queens Drive","waihopai river u/s queens drive","Overall",2.2,"B",4.95,"C","C","",0.00820482235664991,"A",0.0551459321086694,"B","B","",5,340,"DE",3800,"DE",33.3333333333333,"E",58.3333333333333,"DE","E","",15059564,"southland","es","lowland","Rural",-46.3847497460943,168.366722870716,"23-Jun-2020","Rural",9,"Lowland"
"es-00019","Otepuni Creek at Nith Street","otepuni creek at nith street","Overall",1.225,"B",2.85,"B","B","",0.0221289176359548,"A",0.0743467059256533,"B","B","",5,1700,"DE",9000,"DE",76.6666666666667,"E",86.6666666666667,"DE","E","",15060150,"southland","es","lowland","Urban",-46.414114105061,168.350410301998,"23-Jun-2020","Urban",9,"Lowland"
"es-00021","Mataura River at Mataura Island Bridge","mataura river at mataura island bridge","Overall",0.895,"A",1.545,"B","B","",0.00729063691568987,"A",0.0218548958044756,"A","A","",5,215,"D",7500,"DE",23.3333333333333,"D",46.6666666666667,"D","D","",15059279,"southland","es","lowland","Rural",-46.3890685346813,168.777560827914,"23-Jun-2020","Rural",18,"Lowland"
"es-00022","Mataura River 200m d/s Mataura Bridge","mataura river 200m d/s mataura bridge","Overall",0.9,"A",1.5655,"B","B","",0.0200956937799043,"A",0.0682237721492957,"B","B","",6,1100,"DE",18650,"DE",76.056338028169,"E",87.3239436619718,"DE","E","",15053378,"southland","es","lowland","Rural",-46.1985696291369,168.863521606528,"23-Jun-2020","Rural",54,"Lowland"
"es-00024","DN6","Mataura at Parawa (NRWQN) (DN6)","Overall",0.355,"A",0.52,"A","A","",0.00257731958762887,"A",0.00718690288246462,"A","A","",5,130,"ABC",1600,"DE",14.5161290322581,"C",27.4193548387097,"BC","D","",15025929,"southland","niwa","upland","Rural",-45.5582504272461,168.561233520508,"2019-07-11","Rural",429.333333333333,"Upland"
"es-00025","Waikaia River at Waipounamu Bridge Road","waikaia river at waipounamu bridge road","Overall",0.545,"A",0.99,"A","A","",0.00226244343891403,"A",0.00268530783850717,"A","A","",5,130,"ABC",4050,"DE",18.3333333333333,"C",30,"BC","D","",15038774,"southland","es","lowland","Rural",-45.8519215328535,168.792988864516,"23-Jun-2020","Rural",126,"Lowland"
"es-00026","Waikaia River u/s Piano Flat","waikaia river u/s piano flat","Overall",0.012,"A",0.02775,"A","A","",0.00226244343891403,"A",0.00257731958762887,"A","A","",6,14,"ABC",85.5,"ABC",0,"A",0,"A","A","",15024871,"southland","es","upland","Rural",-45.5496419462252,169.02887492495,"23-Jun-2020","Forest",432,"Upland"
"es-00027","Waikaka Stream at Gore","waikaka stream at gore","Overall",0.76,"A",2.2,"B","B","",0.0188477285058945,"A",0.0458629605688429,"A","A","",5,225,"D",20000,"DE",30,"D",46.6666666666667,"D","D","",15049464,"southland","es","lowland","Rural",-46.1074572965357,168.954301132957,"23-Jun-2020","Rural",124,"Lowland"
"es-00028","Mokoreta River at Wyndham River Road","mokoreta river at wyndham river road","Overall",1.045,"B",1.845,"B","B","",0.00279329608938547,"A",0.0149089922557096,"A","A","",6,250,"D",3155,"DE",25.3521126760563,"D",49.2957746478873,"D","D","",15058499,"southland","es","lowland","Rural",-46.3585169685426,168.843464801531,"23-Jun-2020","Rural",44,"Lowland"
"es-00029","Mimihau Stream Tributary at Venlaw Forest","mimihau stream tributary at venlaw forest","Overall",0.148,"A",0.224,"A","A","",0.00279329608938547,"A",0.00558659217877095,"A","A","",6,37,"ABC",336,"ABC",4.41176470588235,"A",7.35294117647059,"A","A","",15056983,"southland","es","upland","Forest",-46.3096253091344,169.082228480021,"23-Jun-2020","Forest",351,"Upland"
"es-00030","Otamita Stream at Mandeville","otamita stream at mandeville","Overall",0.82,"A",1.815,"B","B","",0.00306748466257669,"A",0.0119047619047619,"A","A","",5,250,"D",4100,"DE",21.6666666666667,"D",48.3333333333333,"D","D","",15045155,"southland","es","lowland","Rural",-45.9980415193623,168.824180709994,"23-Jun-2020","Rural",93.5,"Lowland"
"es-00033","Waikopikopiko Stream at Haldane CurioBay","waikopikopiko stream at haldane curiobay","Overall",0.136,"A",0.25,"A","A","",0.00239234449760766,"A",0.00627341909427471,"A","A","",6,160,"D",1840,"DE",14.2857142857143,"C",31.4285714285714,"C","D","",15062800,"southland","es","lowland","Forest",-46.629711242192,169.023215881862,"23-Jun-2020","Forest",18,"Lowland"
"es-00034","Waikawa River at Progress Valley","waikawa river at progress valley","Overall",0.585,"A",1.1,"A","A","",0.00616540920347866,"A",0.0232758620689655,"A","A","",6,540,"DE",11100,"DE",47.887323943662,"E",77.4647887323944,"DE","E","",15062197,"southland","es","lowland","Rural",-46.5742168489349,169.146731113072,"23-Jun-2020","Rural",16,"Lowland"
"es-00035","Waimatuku Stream at Lorneville Riverton Hwy","waimatuku stream at lorneville riverton hwy","Overall",3.4,"C",6.55,"C","C","",0.00684931506849315,"A",0.0255650684931507,"A","A","",6,370,"DE",2200,"DE",33.8028169014084,"E",69.0140845070423,"DE","E","",15057733,"southland","es","lowland","Rural",-46.2995424429551,168.172389275987,"23-Jun-2020","Rural",19,"Lowland"
"es-00036","Oteramika Stream at Seaward Downs","oteramika stream at seaward downs","Overall",2.1,"B",5.13,"C","C","",0.025,"A",0.0765945561412511,"B","B","",6,700,"DE",5475,"DE",54.9295774647887,"E",76.056338028169,"DE","E","",15058925,"southland","es","lowland","Rural",-46.3828106047144,168.761227184044,"23-Jun-2020","Rural",29,"Lowland"
"es-00037","Mataura River at Gore","mataura river at gore","Overall",0.915,"A",1.475,"A","A","",0.00257731958762887,"A",0.00988164487703738,"A","A","",5,380,"DE",9500,"DE",33.3333333333333,"E",61.6666666666667,"DE","E","",15049205,"southland","es","lowland","Urban",-46.1002193469584,168.949448755793,"23-Jun-2020","Rural",74,"Lowland"
"es-00042","Waikaia River at Waikaia","waikaia river at waikaia","Overall",0.1375,"A",0.32,"A","A","",0.0021551724137931,"A",0.00318259918775383,"A","A","",5,170,"D",3900,"DE",21.6666666666667,"D",33.3333333333333,"C","D","",15032882,"southland","es","upland","Rural",-45.7226284184622,168.841892089722,"23-Jun-2020","Forest",173,"Upland"
"es-00043","Upukerora River at Te Anau Milford Road","upukerora river at te anau milford road","Overall",0.1475,"A",0.255,"A","A","",0.00340136054421769,"A",0.00869054078495207,"A","A","",6,30,"ABC",1675,"DE",7.04225352112676,"B",9.85915492957746,"A","D","",15020897,"southland","es","upland","Forest",-45.4101606598051,167.74121317168,"23-Jun-2020","Forest",226.5,"Upland"
"es-00044","Mimihau Stream at Wyndham","mimihau stream at wyndham","Overall",0.805,"A",1.47,"A","A","",0.00306748466257669,"A",0.0111002488446498,"A","A","",6,310,"DE",3220,"DE",33.8028169014084,"E",54.9295774647887,"DE","E","",15057605,"southland","es","lowland","Rural",-46.3211744547906,168.860121400877,"23-Jun-2020","Rural",32,"Lowland"
"es-00045","Mararoa River at The Key","mararoa river at the key","Overall",0.1125,"A",0.315,"A","A","",0.00279329608938547,"A",0.00470169303595036,"A","A","",6,30,"ABC",2930,"DE",12.6760563380282,"C",15.4929577464789,"A","D","",15026532,"southland","es","upland","Rural",-45.541514151631,167.888330498612,"23-Jun-2020","Forest",312.5,"Upland"
"es-00046","Otapiri Stream at Otapiri Gorge","otapiri stream at otapiri gorge","Overall",0.655,"A",1.47,"A","A","",0.00340136054421769,"A",0.0139254997504917,"A","A","",5,365,"DE",4650,"DE",31.6666666666667,"E",58.3333333333333,"DE","E","",15045776,"southland","es","lowland","Rural",-46.0005077984258,168.45767333948,"23-Jun-2020","Rural",137,"Lowland"
"es-00047","Makarewa River at Lora Gorge Road","makarewa river at lora gorge road","Overall",0.71,"A",1.29,"A","A","",0.005,"A",0.0199240905795556,"A","A","",6,460,"DE",8299.99999999998,"DE",43.6619718309859,"E",63.3802816901408,"DE","E","",15048673,"southland","es","lowland","Rural",-46.0666514266213,168.482654787264,"23-Jun-2020","Rural",82,"Lowland"
"es-00048","Bog Burn d/s Hundred Line Road","bog burn d/s hundred line road","Overall",0.95,"A",3.25,"B","B","",0.00920245398773006,"A",0.0402552773686794,"A","A","",5,850,"DE",5250,"DE",63.3333333333333,"E",86.6666666666667,"DE","E","",15048787,"southland","es","lowland","Rural",-46.0623949587389,168.234734679969,"23-Jun-2020","Rural",85,"Lowland"
"es-00049","Tussock Creek at Cooper Road","tussock creek at cooper road","Overall",1.53,"B",3,"B","B","",0.0294779012664771,"A",0.167741935483871,"B","B","",6,800,"DE",16300,"DE",63.3802816901408,"E",87.3239436619718,"DE","E","",15055845,"southland","es","lowland","Rural",-46.2459936497591,168.413214223016,"23-Jun-2020","Rural",39,"Lowland"
"es-00051","Pourakino River at Traill Road","pourakino river at traill road","Overall",0.188,"A",0.41,"A","A","",0.0051792828685259,"A",0.0109921193357726,"A","A","",6,360,"DE",2165,"DE",30.9859154929577,"E",61.9718309859155,"DE","E","",15057663,"southland","es","lowland","Forest",-46.2920802685694,167.957895106544,"23-Jun-2020","Forest",20,"Lowland"
"es-00052","Opouriki Stream at Tweedie Road","opouriki stream at tweedie road","Overall",1.84,"B",3.15,"B","B","",0.0131578947368421,"A",0.0649991152455825,"B","B","",6,600,"DE",6385,"DE",52.112676056338,"E",80.2816901408451,"DE","E","",15057319,"southland","es","lowland","Rural",-46.2816469701361,167.976238717471,"23-Jun-2020","Rural",33.6666666666667,"Lowland"
"es-00053","Otautau Stream at Waikouro","otautau stream at waikouro","Overall",0.995,"A",2.55,"B","B","",0.018,"A",0.0799193357991657,"B","B","",6,1100,"DE",17200,"DE",73.2394366197183,"E",92.9577464788732,"DE","E","",15050929,"southland","es","lowland","Rural",-46.0991876074267,167.962184806747,"23-Jun-2020","Rural",56,"Lowland"
"es-00054","Mokotua Stream at Awarua","mokotua stream at awarua","Overall",0.03,"A",0.1,"A","A","",0.00174825174825175,"A",0.0111888111888112,"A","A","",6,5,"ABC",60,"ABC",1.40845070422535,"A",1.40845070422535,"A","A","",15062054,"southland","es","lowland","Rural",-46.5421399463717,168.433873252685,"23-Jun-2020","Forest",9,"Lowland"
"es-00057","Carran Creek at Waituna Lagoon Road","carran creek at waituna lagoon road","Overall",0.395,"A",2.1,"B","B","",0.018006993006993,"A",0.0489966150870406,"A","A","",6,200,"D",8949.99999999997,"DE",30.9859154929577,"E",40.8450704225352,"D","E","",15061958,"southland","es","lowland","Rural",-46.5427930869726,168.651157054852,"23-Jun-2020","Rural",5,"Lowland"
"es-00061","Orauea River at Orawia Pukemaori Road","orauea river at orawia pukemaori road","Overall",0.5,"A",1.57,"B","B","",0.005,"A",0.0246284232496363,"A","A","",6,240,"D",9209.99999999998,"DE",33.8028169014084,"E",47.887323943662,"D","E","",15050335,"southland","es","lowland","Rural",-46.0772372324477,167.791628968043,"23-Jun-2020","Rural",57,"Lowland"
