"Region","Agency","CouncilSiteID","SiteID","LawaSiteID","NZReach","Lat","Long","SWQAltitude","AltitudeCl","Altitude"
"auckland","ac","43829","ngakaroa","arc-00009",2009507,-37.1954699997178,174.97350999991,"lowland","Upland",165
"auckland","ac","44603","cascades ltb","arc-00001",2005866,-36.8888897276789,174.522114739379,"upland","Lowland",64
"auckland","ac","6811","mahurangi river fhq","arc-00005",2002015,-36.4484700004014,174.648799999662,"upland","Lowland",144
"auckland","ac","7171","nukumea upper","arc-00038",2003052,-36.5711630781172,174.66982770771,"upland","Lowland",84.25
"auckland","ac","7206","west hoe ltb","arc-00027",2003137,-36.5784732643224,174.657568393706,"upland","Lowland",84
"auckland","ac","74401","onetangi @ waiheke rd","arc-00039",2005178,-36.7916799996744,175.087370000038,"upland","Lowland",80
"auckland","ac","74701","cascades @ whakanewha","arc-00040",2005391,-36.5785202997045,174.6576180003,"upland","Lowland",138
"auckland","ac","7811","oteha stream","arc-00074",2004535,-36.7319099998125,174.694790000535,"upland","Lowland",27.5
