"CouncilSiteID","SiteID","LawaSiteID","NZReach","Region","Agency","SWQAltitude","SWQLanduse","Lat","Long","accessDate","Catchment","Landcover","Altitude","AltitudeCl"
"100007","waiharakeke at stringers road","nrc-00028",1009997,"northland","nrc","lowland","Rural",-35.39381151,174.01971179,"03-Jul-2020","unstated","Rural",21,"Lowland"
"100194","hatea at mair park","nrc-00019",1018018,"northland","nrc","lowland","Urban",-35.71100271,174.32972329,"03-Jul-2020","unstated","Urban",29,"Lowland"
"100237","mangahahuru at main road","nrc-00013",1016447,"northland","nrc","lowland","Forest",-35.63994339,174.31310476,"03-Jul-2020","unstated","Forest",117,"Lowland"
"100281","mangahahuru at apotu road","nrc-00014",1015857,"northland","nrc","lowland","Rural",-35.61771787,174.26008474,"03-Jul-2020","unstated","Rural",88,"Lowland"
"100363","awanui at fndc","nrc-00016",1004333,"northland","nrc","lowland","Rural",-35.12158307,173.27541636,"03-Jul-2020","unstated","Rural",21,"Lowland"
"100370","awanui at waihue channel","nrc-00017",1004083,"northland","nrc","lowland","Rural",-35.10803978,173.22728661,"03-Jul-2020","unstated","Rural",13,"Lowland"
"101038","mangakahia at titoki","nrwqn-00021",1018598,"northland","nrc","lowland","Rural",-35.73415795,174.05051642,"03-Jul-2020","unstated","Rural",16,"Lowland"
"101524","waipapa at landing","nrc-00031",1006063,"northland","nrc","lowland","Rural",-35.20326296,173.96839515,"03-Jul-2020","unstated","Rural",24,"Lowland"
"101530","kerikeri at stone store","nrc-00021",1006289,"northland","nrc","lowland","Rural",-35.21718382,173.96285807,"03-Jul-2020","unstated","Rural",52,"Lowland"
"101625","mangere at knight road","nrc-00001",1017791,"northland","nrc","lowland","Rural",-35.69795439,174.1449511,"03-Jul-2020","unstated","Rural",94,"Lowland"
"101753","wairua at purua","nrwqn-00022",1016617,"northland","nrc","lowland","Rural",-35.65281793,174.15189542,"03-Jul-2020","unstated","Rural",144,"Lowland"
"102248","waiotu at sh1","nrc-00012",1013585,"northland","nrc","lowland","Rural",-35.53221197,174.22856874,"03-Jul-2020","unstated","Rural",100,"Lowland"
"102249","whakapara at cableway","nrc-00011",1013917,"northland","nrc","lowland","Rural",-35.54190088,174.27149499,"03-Jul-2020","unstated","Rural",93,"Lowland"
"102256","kaihu at gorge","nrc-00006",1019201,"northland","nrc","lowland","Rural",-35.76264196,173.68526146,"03-Jul-2020","unstated","Rural",107,"Lowland"
"102257","manganui at mititai road","nrc-00002",1023081,"northland","nrc","lowland","Rural",-35.96148471,174.11295815,"03-Jul-2020","unstated","Rural",20,"Lowland"
"102258","opouteke at suspension bridge","nrc-00008",1017632,"northland","nrc","lowland","Forest",-35.69565634,173.86768807,"03-Jul-2020","unstated","Forest",182,"Upland"
"102674","kaeo at dip road","nrc-00020",1003935,"northland","nrc","lowland","Rural",-35.09785338,173.77159365,"03-Jul-2020","unstated","Rural",19,"Lowland"
"103178","waitangi at waimate north road","nrc-00010",1008027,"northland","nrc","lowland","Rural",-35.29616152,173.90069715,"03-Jul-2020","unstated","Rural",88.5,"Lowland"
"103304","waipoua at sh12","nrc-00007",1016579,"northland","nrc","lowland","Forest",-35.65250409,173.57039274,"03-Jul-2020","unstated","Forest",185.5,"Upland"
"1043837","papakura @ alfriston-ardmore rd","lawa-102239",2007351,"auckland","arc","lowland","Rural",-37.0064500003998,174.958219999583,"03-Jul-2020","papakura stream","Rural",53,"Lowland"
"105008","ruakaka at flyger road","nrc-00026",1021503,"northland","nrc","lowland","Rural",-35.86945027,174.40261082,"03-Jul-2020","unstated","Rural",14,"Lowland"
"105231","punakitere at taheke","nrc-00005",1011729,"northland","nrc","lowland","Rural",-35.46260455,173.66127167,"03-Jul-2020","unstated","Rural",31,"Lowland"
"105532","victoria at victoria valley road","nrc-00015",1004839,"northland","nrc","lowland","Forest",-35.147225,173.40764898,"03-Jul-2020","unstated","Forest",92,"Lowland"
"108359","waiarohia at second avenue","nrc-00004",1018445,"northland","nrc","lowland","Urban",-35.72266387,174.31624099,"03-Jul-2020","unstated","Urban",7.66666666666667,"Lowland"
"108941","waipao at draffins road","nrc-00030",1018522,"northland","nrc","lowland","Rural",-35.72655755,174.12530358,"03-Jul-2020","unstated","Rural",74.5,"Lowland"
"108978","mangamuka at iwitaua road","nrc-00022",1006091,"northland","nrc","lowland","Forest",-35.20920885,173.54106138,"03-Jul-2020","unstated","Forest",20,"Lowland"
"108979","oruru at oruru road","nrc-00024",1002906,"northland","nrc","lowland","Rural",-35.03863042,173.49052107,"03-Jul-2020","unstated","Rural",14,"Lowland"
"109020","utakura at horeke road","nrc-00027",1008814,"northland","nrc","lowland","Rural",-35.3399122,173.62625659,"03-Jul-2020","unstated","Rural",163,"Upland"
"109021","hakaru at topuni","nrc-00018",1026482,"northland","nrc","lowland","Rural",-36.20376405,174.49424394,"03-Jul-2020","unstated","Rural",102.5,"Lowland"
"109096","mangakahia at twin bridges","nrc-00009",1015928,"northland","nrc","lowland","Rural",-35.62991807,173.85405607,"03-Jul-2020","unstated","Rural",122.5,"Lowland"
"109098","waimamaku at sh12","nrc-00029",1014099,"northland","nrc","lowland","Rural",-35.55860768,173.44871601,"03-Jul-2020","unstated","Rural",67.5,"Lowland"
"110431","otaika at otaika valley road","nrc-00045",1019622,"northland","nrc","lowland","Rural",-35.77783168,174.27764197,"03-Jul-2020","unstated","Rural",91,"Lowland"
"110603","ngunguru at coalhill lane","lawa-100668",1016568,"northland","nrc","lowland","Rural",-35.64242325,174.42564673,"03-Jul-2020","unstated","Rural",68.5,"Lowland"
"14393","awakino river at gribbon rd","ew-00001",1.54299369150709e-317,"waikato","wrc","lowland","Rural",-38.5631084931943,174.837116995288,"03-Jul-2020","awakino river","Forest",153,"Upland"
"14395","awakino river at sh3 awakau rd junction","ew-00002",1.54728069911605e-317,"waikato","wrc","lowland","Forest",-38.67060886189,174.709357790682,"03-Jul-2020","awakino river","Rural",183,"Upland"
"14419","awaroa river (waiuku) at otaua rd br opp moseley rd","ew-00003",1.50611564357021e-317,"waikato","wrc","lowland","Rural",-37.3017487330735,174.758607034067,"03-Jul-2020","waikato river","Rural",1.06307244301,"Lowland"
"14435","awaroa stm (rotowaro) at sansons br @ rotowaro-huntly rd","ew-00004",1.50986609588779e-317,"waikato","wrc","lowland","Rural",-37.5870112217529,175.09097104267,"03-Jul-2020","waikato river","Rural",16,"Lowland"
"24166","hikutaia river at old maratoto rd","ew-00005",1.50616455606914e-317,"waikato","wrc","lowland","Forest",-37.288795732785,175.67173017253,"03-Jul-2020","waihou river","Forest",18,"Lowland"
"24172","hinemaiaia river at sh1","ew-00006",1.55581420095102e-317,"waikato","wrc","upland","Forest",-38.8545947922,176.021352892194,"03-Jul-2020","waikato river","Forest",449,"Upland"
"36706","kaniwhaniwha stm at wright rd","ew-00007",1.51588727391365e-317,"waikato","wrc","lowland","Rural",-37.8705990863712,175.140831756912,"03-Jul-2020","waikato river","Rural",19,"Lowland"
"36745","karapiro stm at hickey rd bridge - cambridge","ew-00008",1.51684576126659e-317,"waikato","wrc","lowland","Forest",-37.8995516346389,175.534949083881,"03-Jul-2020","waikato river","Rural",65,"Lowland"
"36768","kauaeranga river at smiths cableway/recorder","ew-00009",1.50441902214239e-317,"waikato","wrc","lowland","Forest",-37.1573656960264,175.590522392679,"03-Jul-2020","kauaeranga river","Forest",29,"Lowland"
"36800","kawaunui stm at sh5 br","ew-00010",1.53671214088586e-317,"waikato","wrc","upland","Rural",-38.382238370817,176.342556260567,"03-Jul-2020","waikato river","Rural",310,"Upland"
"36867","kirikiriroa stm at tauhara dr","ew-00011",1.51253503850662e-317,"waikato","wrc","lowland","Urban",-37.7449944685449,175.261451019445,"03-Jul-2020","waikato river","Urban",29,"Lowland"
"36890","komakorau stm at henry rd","ew-00012",1.51035472681152e-317,"waikato","wrc","lowland","Rural",-37.6253879999173,175.252744698928,"03-Jul-2020","waikato river","Rural",20,"Lowland"
"36998","kuratau river at sh41 moerangi","ew-00013",1.5567203173455e-317,"waikato","wrc","upland","Forest",-38.8910860718891,175.60002471274,"03-Jul-2020","waikato river","Forest",702,"Upland"
"37003","kuratau river at te rae street t10","ew-00014",1.55693474183579e-317,"waikato","wrc","upland","Forest",-38.8887306216126,175.768600585648,"03-Jul-2020","waikato river","Rural",401,"Upland"
"37523","little waipa stm at arapuni - putaruru rd","ew-00016",1.52226417920453e-317,"waikato","wrc","lowland","Rural",-38.0553211955092,175.696788242224,"03-Jul-2020","waikato river","Rural",120,"Lowland"
"37631","mangaharakeke stm (atiamuri) at sh30 (off jct sh1)","ew-00017",1.53461483221927e-317,"waikato","wrc","upland","Rural",-38.347165834374,176.011757433945,"03-Jul-2020","waikato river","Rural",272,"Upland"
"37700","mangakara stm (reporoa) at sh5","ew-00018",1.53965183147862e-317,"waikato","wrc","upland","Rural",-38.4523097653675,176.317493383317,"03-Jul-2020","waikato river","Rural",300,"Upland"
"37720","mangakino stm (whakamaru) at sandel rd","ew-00019",1.53902930876486e-317,"waikato","wrc","upland","Forest",-38.4582599598539,175.73388315036,"03-Jul-2020","waikato river","Rural",325,"Upland"
"37768","mangakotukutuku stm (rukuhia) at peacockes rd","ew-00020",1.51422276675282e-317,"waikato","wrc","lowland","Rural",-37.8117970730327,175.300494505438,"03-Jul-2020","waikato river","Urban",20,"Lowland"
"37825","mangamingi stm (tokoroa) at paraonui rd br","ew-00021",1.52754376469599e-317,"waikato","wrc","upland","Rural",-38.196940583132,175.83942566983,"03-Jul-2020","waikato river","Rural",298,"Upland"
"37841","manganui river at off manganui rd","ew-00022",1.54660679357513e-317,"waikato","wrc","lowland","Rural",-38.6474976676723,174.669924427576,"03-Jul-2020","awakino river","Rural",141,"Lowland"
"37860","mangaohoi stm at south branch maru rd","ew-00023",1.52156260598743e-317,"waikato","wrc","upland","Rural",-38.0500014301708,175.538434101452,"03-Jul-2020","waikato river","Rural",255,"Upland"
"37891","mangaokewa stm at lawrence street br","ew-00024",1.53325318729933e-317,"waikato","wrc","lowland","Forest",-38.3375830447312,175.169518554247,"03-Jul-2020","waikato river","Rural",108,"Lowland"
"37939","mangaone stm (waikato) at annebrooke rd br","ew-00025",1.51414964503723e-317,"waikato","wrc","lowland","Rural",-37.8092456754195,175.336250342001,"03-Jul-2020","waikato river","Rural",42,"Lowland"
"37986","mangaonua stm at hoeka rd","ew-00026",1.51339421866474e-317,"waikato","wrc","lowland","Rural",-37.779862038773,175.387358176142,"03-Jul-2020","waikato river","Rural",40,"Lowland"
"37993","mangaonua stm at te miro rd (a.k.a waitakaruru stm)","ew-00027",1.51454637975084e-317,"waikato","wrc","lowland","Rural",-37.8169010623013,175.512785406882,"03-Jul-2020","waikato river","Rural",154,"Upland"
"38025","mangaotaki river at sh3 br","ew-00028",1.54122938308579e-317,"waikato","wrc","lowland","Forest",-38.5216039643136,174.906419395854,"03-Jul-2020","mokau river","Rural",90,"Lowland"
"38101","mangapiko stm (pirongia/te awamutu) at bowman rd","ew-00029",1.51919949000337e-317,"waikato","wrc","lowland","Rural",-37.976548643878,175.266696679873,"03-Jul-2020","waikato river","Rural",62,"Lowland"
"38165","mangapu river at otorohanga","ew-00030",1.52743457618826e-317,"waikato","wrc","lowland","Rural",-38.1959117036534,175.205339327183,"03-Jul-2020","waikato river","Rural",37,"Lowland"
"38220","mangatangi river at sh2 maramarua","ew-00031",1.50541357628747e-317,"waikato","wrc","lowland","Rural",-37.2470697626325,175.184824815733,"03-Jul-2020","waikato river","Rural",14,"Lowland"
"38263","mangatawhiri river at lyons rd at buckingham br","ew-00032",1.50475449271591e-317,"waikato","wrc","lowland","Rural",-37.1982778577616,175.132877319712,"03-Jul-2020","waikato river","Forest",19,"Lowland"
"38350","mangatutu stm (waikeria) at walker rd br","ew-00033",1.52347068751167e-317,"waikato","wrc","lowland","Rural",-38.0982243078572,175.396145259323,"03-Jul-2020","waikato river","Rural",64,"Lowland"
"38367","mangauika stm at te awamutu borough w/s intake","ew-00034",1.52104087266542e-317,"waikato","wrc","upland","Forest",-38.029823813752,175.136277002574,"03-Jul-2020","waikato river","Forest",220,"Upland"
"38386","mangawara stm at rutherford rd br","ew-00035",1.50957262089416e-317,"waikato","wrc","lowland","Forest",-37.5596796902786,175.2430095199,"03-Jul-2020","waikato river","Rural",1,"Lowland"
"38424","mangawhero stm (cambridge) at cambridge-ohaupo rd","ew-00036",1.51655031001037e-317,"waikato","wrc","lowland","Forest",-37.8906182956092,175.404633658506,"03-Jul-2020","waikato river","Rural",42,"Lowland"
"38431","mangawhero stm (kaihere) at mangawara rd","ew-00037",1.50759635831079e-317,"waikato","wrc","lowland","Forest",-37.4012841953149,175.423432744403,"03-Jul-2020","piako river","Forest",156.49331665,"Upland"
"38533","marokopa river at speedies rd (off te anga rd)","ew-00040",1.52961044129254e-317,"waikato","wrc","lowland","Rural",-38.2594414936044,174.834722021283,"03-Jul-2020","marokopa river","Rural",139,"Lowland"
"38551","matahuru stm at waiterimu road below confluence","ew-00042",1.50841848354547e-317,"waikato","wrc","lowland","Rural",-37.4822375688604,175.23939080529,"03-Jul-2020","waikato river","Rural",12,"Lowland"
"40716","mokau river at mangaokewa rd (off sh30)","ew-00044",1.53915084891374e-317,"waikato","wrc","upland","Rural",-38.4656316558088,175.28575807885,"03-Jul-2020","mokau river","Rural",239,"Upland"
"40718","mokau river at awakau rd","ew-00043",1.54805045339227e-317,"waikato","wrc","lowland","Forest",-38.6841076122902,174.722842304178,"03-Jul-2020","mokau river","Forest",38,"Lowland"
"40720","mokau river at totoro rd recorder","ew-00045",1.54316266195797e-317,"waikato","wrc","lowland","Forest",-38.5708641167244,174.902704995384,"03-Jul-2020","mokau river","Rural",57,"Lowland"
"40738","mokauiti stm at three way point - aria","ew-00046",1.54265920906485e-317,"waikato","wrc","lowland","Rural",-38.5511839094008,174.981993313287,"03-Jul-2020","mokau river","Rural",120,"Lowland"
"40966","ohaeroa stm at sh22 br","ew-00047",1.50626929798606e-317,"waikato","wrc","lowland","Rural",-37.3125437848767,174.952397431489,"03-Jul-2020","waikato river","Rural",14,"Lowland"
"40998","ohautira stm at waingaro te uku rd","ew-00048",1.51274551047175e-317,"waikato","wrc","lowland","Rural",-37.7631544554243,174.972518351917,"03-Jul-2020","ohautira stream","Rural",16,"Lowland"
"41010","ohinemuri river at queens head","ew-00049",1.50788390451667e-317,"waikato","wrc","lowland","Rural",-37.4144576836479,175.79482241296,"03-Jul-2020","waihou river","Rural",110,"Lowland"
"41011","ohinemuri river at sh25 br","ew-00050",1.50732412813993e-317,"waikato","wrc","lowland","Rural",-37.3734378909694,175.866745259212,"03-Jul-2020","waihou river","Rural",179,"Upland"
"41071","ohote stm at whatawhata/horotiu rd","ew-00051",1.51298710857257e-317,"waikato","wrc","lowland","Rural",-37.7675571255122,175.151399512515,"03-Jul-2020","waikato river","Rural",20,"Lowland"
"41211","oparau river at langdon rd (off okupata rd)","ew-00052",1.52117970511191e-317,"waikato","wrc","lowland","Rural",-38.0426645098004,174.933334073393,"03-Jul-2020","oparau river","Rural",44,"Lowland"
"41249","opuatia stm at ponganui rd","ew-00053",1.50694270946134e-317,"waikato","wrc","lowland","Forest",-37.3652522107812,174.884997320586,"03-Jul-2020","waikato river","Rural",77,"Lowland"
"41303","oraka stm at lake rd","ew-00054",1.5177405141512e-317,"waikato","wrc","lowland","Rural",-37.9221423882887,175.770603877803,"03-Jul-2020","waihou river","Rural",80,"Lowland"
"41355","otamakokore stm at hossack rd","ew-00056",1.53320427480039e-317,"waikato","wrc","upland","Forest",-38.3071920215625,176.263725392085,"03-Jul-2020","waikato river","Rural",400,"Upland"
"41630","piako river at kiwitahi","ew-00057",1.51175490885184e-317,"waikato","wrc","lowland","Rural",-37.7021524500451,175.60415968722,"03-Jul-2020","piako river","Rural",60,"Lowland"
"41634","piako river at paeroa-tahuna rd br","ew-00058",1.50900543353273e-317,"waikato","wrc","lowland","Rural",-37.5141110929666,175.506223418132,"03-Jul-2020","piako river","Rural",6.30812072754,"Lowland"
"41667","piakonui stm at piakonui rd","ew-00059",1.51481515146218e-317,"waikato","wrc","upland","Rural",-37.8250965106721,175.628118270777,"03-Jul-2020","piako river","Rural",133,"Lowland"
"41766","pokaiwhenua stm at puketurua","ew-00060",1.52222712428109e-317,"waikato","wrc","lowland","Rural",-38.0579166582422,175.722546791127,"03-Jul-2020","waikato river","Rural",121,"Lowland"
"41835","pueto stm at broadlands rd br","ew-00061",1.54630788385939e-317,"waikato","wrc","upland","Rural",-38.6148826356609,176.258804057729,"03-Jul-2020","waikato river","Forest",299,"Upland"
"41893","puniu river at bartons corner rd br","ew-00063",1.52104186079672e-317,"waikato","wrc","lowland","Rural",-38.0300773769626,175.293511605056,"03-Jul-2020","waikato river","Urban",35,"Lowland"
"42292","tahunaatara stm at ohakuri rd","ew-00064",1.53432086315999e-317,"waikato","wrc","upland","Forest",-38.3366429117693,176.070413314583,"03-Jul-2020","waikato river","Rural",280,"Upland"
"42340","tairua river at morrisons br hikuai","ew-00065",1.50349857784418e-317,"waikato","wrc","lowland","Forest",-37.0746590501755,175.77165364404,"03-Jul-2020","tairua river","Forest",138,"Lowland"
"42385","tapu river at tapu-coroglen rd","ew-00066",1.50244028923079e-317,"waikato","wrc","lowland","Forest",-36.9815869379655,175.505094549805,"03-Jul-2020","tapu river","Forest",83,"Lowland"
"42477","tawarau river at off speedies rd","ew-00068",1.52999927095582e-317,"waikato","wrc","lowland","Forest",-38.2640785008551,174.844736715687,"03-Jul-2020","marokopa river","Rural",81,"Lowland"
"42678","tokaanu power station tailrace canal at sh41 bridge over canal","ew-00069",1.56058687508985e-317,"waikato","wrc","upland","Forest",-38.9792349360231,175.774386593026,"03-Jul-2020","waikato river","Forest",361,"Upland"
"42685","tokaanu stm at off sh41 turangi","ew-00070",1.56114171081013e-317,"waikato","wrc","upland","Rural",-38.9921251432776,175.788062224646,"03-Jul-2020","waikato river","Rural",504,"Upland"
"42773","torepatutahi stm at vaile rd br","ew-00071",1.5412338296766e-317,"waikato","wrc","upland","Forest",-38.487186909678,176.306519978245,"03-Jul-2020","waikato river","Rural",299,"Upland"
"42974","waerenga stm at taniwha rd","ew-00072",1.50730337738281e-317,"waikato","wrc","lowland","Rural",-37.3845568343283,175.290194327837,"03-Jul-2020","waikato river","Rural",39,"Lowland"
"42993","waiau river at e309 rd ford","ew-00073",1.50060532942214e-317,"waikato","wrc","lowland","Rural",-36.7938607100792,175.524390510656,"03-Jul-2020","waiau river","Forest",23,"Lowland"
"43010","waihaha river at sh32","ew-00074",1.54970804363407e-317,"waikato","wrc","upland","Forest",-38.7004580651909,175.683783583593,"03-Jul-2020","waikato river","Forest",503,"Upland"
"43145","waihou river at whites rd","ew-00076",1.52103296761509e-317,"waikato","wrc","lowland","Rural",-38.0192588201407,175.814088326377,"03-Jul-2020","waihou river","Rural",117,"Lowland"
"43171","waihou river at okauia","ew-00075",1.51384727686198e-317,"waikato","wrc","lowland","Urban",-37.7874458617256,175.839374136597,"03-Jul-2020","waihou river","Rural",40,"Lowland"
"43224","waikato river at huntly-tainui br","ew-00078",1.50958941912612e-317,"waikato","wrc","lowland","Forest",-37.5662443743287,175.154277323428,"03-Jul-2020","waikato river","Urban",6,"Lowland"
"43278","waikato river at whakamaru tailrace","ew-00086",1.537657782532e-317,"waikato","wrc","upland","Forest",-38.4187135947562,175.806337994402,"03-Jul-2020","waikato river","Rural",277,"Upland"
"43313","waikato river at horotiu br","ew-00077",1.51148514900921e-317,"waikato","wrc","lowland","Forest",-37.6977289352494,175.206777865847,"03-Jul-2020","waikato river","Rural",19,"Lowland"
"43334","waikato river at ohaaki br","ew-00082",1.54316463822055e-317,"waikato","wrc","upland","Forest",-38.5327953576151,176.303745860361,"03-Jul-2020","waikato river","Forest",296,"Upland"
"43336","waikato river at ohakuri tailrace br","ew-00083",1.53745570968285e-317,"waikato","wrc","upland","Forest",-38.406997966736,176.086134019175,"03-Jul-2020","waikato river","Rural",290,"Upland"
"43349","waikato river at taupo control gates","ew-00119",1.54915617230767e-317,"waikato","wrc","upland","Forest",-38.6810584711027,176.06993982251,"03-Jul-2020","waikato river","Urban",416,"Upland"
"43361","waikato river at waipapa tailrace","ew-00085",1.53157138784088e-317,"waikato","wrc","lowland","Forest",-38.285510362379,175.685227433566,"03-Jul-2020","waikato river","Rural",221,"Upland"
"43401","waikato river at mercer br","ew-00079",1.50587404546939e-317,"waikato","wrc","lowland","Forest",-37.281271741161,175.046703329257,"03-Jul-2020","waikato river","Rural",12,"Lowland"
"43411","waikato river at tuakau br","ew-00084",1.50603313460735e-317,"waikato","wrc","lowland","Forest",-37.2960074716085,174.945178573855,"03-Jul-2020","waikato river","Rural",14,"Lowland"
"43552","waikato river at narrows boat ramp","ew-00080",1.51512394249083e-317,"waikato","wrc","lowland","Forest",-37.8396283916306,175.347742162208,"03-Jul-2020","waikato river","Rural",45,"Lowland"
"43601","waitangi stream","arc-00028",2009665,"auckland","arc","lowland","Rural",-37.2270234530618,174.739817460997,"03-Jul-2020","waitangi stream","Rural",23.25,"Lowland"
"43768","waingaro river (pukemiro) at ruakiwi rd off sh22","ew-00087",1.51203158561351e-317,"waikato","wrc","lowland","Rural",-37.7325943186377,174.968246198867,"03-Jul-2020","waingaro river","Rural",81,"Lowland"
"43794","waiohotu stm at waiohotu rd (off sh5)","ew-00088",1.52065895992119e-317,"waikato","wrc","upland","Forest",-38.0040407520648,175.918972697526,"03-Jul-2020","waihou river","Rural",300,"Upland"
"43807","puhinui","arc-00079",2007136,"auckland","arc","lowland","Urban",-36.9926573593278,174.870259273813,"03-Jul-2020","puhinui","Urban",20,"Lowland"
"43807","puhinui ltb","arc-00022",2007136,"auckland","arc","lowland","Urban",-36.9926573593278,174.870259273813,"03-Jul-2020","puhinui stream","Urban",20,"Lowland"
"43809","waiomou stm at matamata-tauranga rd","ew-00089",1.51576079310832e-317,"waikato","wrc","lowland","Rural",-37.853300774061,175.865479835301,"03-Jul-2020","waihou river","Rural",77,"Lowland"
"438100","whangamarie stream","arc-00029",2009245,"auckland","arc","lowland","Rural",-37.1706900003216,174.842429999729,"03-Jul-2020","whangamarie stream","Rural",38,"Lowland"
"43829","ngakaroa","arc-00009",2009507,"auckland","arc","lowland","Rural",-37.1954699997178,174.97350999991,"03-Jul-2020","ngakaroa","Rural",165,"Upland"
"43855","waiotapu stm at homestead rd br","ew-00091",1.53974965647649e-317,"waikato","wrc","upland","Rural",-38.4549881648219,176.327549078465,"03-Jul-2020","waikato river","Rural",298,"Upland"
"43856","papakura ltb","arc-00021",2007536,"auckland","arc","lowland","Urban",-37.0281570217399,174.92321720323,"03-Jul-2020","papakura stream","Rural",17,"Lowland"
"43879","waiotapu stm at campbell rd br","ew-00090",1.53650710364284e-317,"waikato","wrc","upland","Rural",-38.3800672617725,176.346656447727,"03-Jul-2020","waikato river","Rural",320,"Upland"
"43910","waipa river at mangaokewa rd","ew-00092",1.53872397619573e-317,"waikato","wrc","upland","Rural",-38.453274332019,175.444756178138,"03-Jul-2020","waikato river","Forest",458,"Upland"
"43913","waipa river at pirongia-ngutunui rd br","ew-00093",1.52015995361889e-317,"waikato","wrc","lowland","Forest",-38.0057504966296,175.203853645951,"03-Jul-2020","waikato river","Rural",21,"Lowland"
"43915","waipa river at sh3 otorohanga","ew-00094",1.5273575019475e-317,"waikato","wrc","lowland","Forest",-38.1922361711938,175.208642332889,"03-Jul-2020","waikato river","Rural",30,"Lowland"
"43992","waipapa stm (mokai) at tirohanga rd br","ew-00095",1.53800560474668e-317,"waikato","wrc","upland","Forest",-38.4235846886735,175.959432237945,"03-Jul-2020","waikato river","Rural",230,"Upland"
"44082","waitahanui river at blake rd","ew-00096",1.55358201236311e-317,"waikato","wrc","upland","Forest",-38.7985033465891,176.086512099759,"03-Jul-2020","waikato river","Forest",413,"Upland"
"44092","waitakaruru river (hauraki plains) at coxhead rd br","ew-00097",1.50575546971439e-317,"waikato","wrc","lowland","Forest",-37.271370475898,175.356968396358,"03-Jul-2020","waitakaruru river","Rural",10.7616081238,"Lowland"
"44178","waitawhiriwhiri stm at edgecumbe street","ew-00098",1.5131674425333e-317,"waikato","wrc","lowland","Forest",-37.773266354885,175.269737008783,"03-Jul-2020","waikato river","Rural",20,"Lowland"
"44241","waitekauri river at u/s ohinemuri conflu","ew-00099",1.50773025010082e-317,"waikato","wrc","lowland","Forest",-37.4167234480118,175.783202547386,"03-Jul-2020","waihou river","Rural",80,"Lowland"
"44285","waitetuna river at te uku-waingaro rd","ew-00100",1.51427661990821e-317,"waikato","wrc","lowland","Rural",-37.8177534336714,174.975981621731,"03-Jul-2020","waitetuna river","Rural",18,"Lowland"
"44331","waitoa river at landsdowne rd br","ew-00101",1.5131847348309e-317,"waikato","wrc","lowland","Rural",-37.7653456084661,175.741164634185,"03-Jul-2020","piako river","Rural",49,"Lowland"
"44334","waitoa river at mellon rd recorder","ew-00102",1.50921886989173e-317,"waikato","wrc","lowland","Rural",-37.5283760038858,175.629647676109,"03-Jul-2020","piako river","Rural",18,"Lowland"
"44379","waitomo stm at tumutumu rd","ew-00105",1.53005460630815e-317,"waikato","wrc","lowland","Rural",-38.2601596511047,175.098779177931,"03-Jul-2020","waikato river","Rural",119,"Lowland"
"44391","waitomo stm at sh31 otorohanga","ew-00104",1.52681304160579e-317,"waikato","wrc","lowland","Rural",-38.1808426494479,175.191528125851,"03-Jul-2020","waikato river","Rural",32,"Lowland"
"44407","waiwawa river at sh25 coroglen","ew-00106",1.50178417005312e-317,"waikato","wrc","lowland","Forest",-36.9244783869921,175.692347776425,"03-Jul-2020","waiwawa river","Forest",80,"Lowland"
"44529","whakapipi stm at sh22 br","ew-00108",1.50551387161357e-317,"waikato","wrc","lowland","Rural",-37.2574938127379,174.924951629489,"03-Jul-2020","waikato river","Rural",19,"Lowland"
"44580","whakauru stm at u/s  sh1 br","ew-00109",1.52847804283227e-317,"waikato","wrc","upland","Forest",-38.2147430278285,175.872778761218,"03-Jul-2020","waikato river","Rural",336,"Upland"
"44603","cascades ltb","arc-00001",2005866,"auckland","arc","upland","Forest",-36.8888897276789,174.522114739379,"03-Jul-2020","cascade stream","Forest",64,"Lowland"
"44607","whangamarino river at jefferies rd br","ew-00111",1.50673223749622e-317,"waikato","wrc","lowland","Forest",-37.3355278371707,175.235770830708,"03-Jul-2020","waikato river","Rural",19,"Lowland"
"44617","whangamarino river at island block rd","ew-00110",1.50624360657248e-317,"waikato","wrc","lowland","Rural",-37.306322927471,175.087130429351,"03-Jul-2020","waikato river","Rural",18,"Lowland"
"44668","whangamata stm (kinloch) at whangamata rd","ew-00112",1.54722536376372e-317,"waikato","wrc","upland","Forest",-38.6427545776433,175.927628796565,"03-Jul-2020","waikato river","Rural",401,"Upland"
"44674","whanganui stm at lakeside lake taupo t8","ew-00113",1.55293330417012e-317,"waikato","wrc","upland","Forest",-38.78349783432,175.730106777694,"03-Jul-2020","waikato river","Rural",355,"Upland"
"44677","whangape stm at rangiriri-glen murray rd","ew-00114",1.50806769693692e-317,"waikato","wrc","lowland","Forest",-37.445276921392,175.087990547737,"03-Jul-2020","waikato river","Rural",19,"Lowland"
"44749","wharekawa river at sh25","ew-00115",1.50425548641361e-317,"waikato","wrc","lowland","Forest",-37.136066881572,175.84257408522,"03-Jul-2020","wharekawa river","Rural",19,"Lowland"
"44791","whareroa stm (taupo) at lakeside lake taupo t9","ew-00116",1.55581321281973e-317,"waikato","wrc","upland","Forest",-38.8592591914886,175.782701152047,"03-Jul-2020","waikato river","Rural",378,"Upland"
"44845","whirinaki stm at corbett rd","ew-00118",1.53303777467774e-317,"waikato","wrc","upland","Rural",-38.3030801759577,176.265152969159,"03-Jul-2020","waikato river","Rural",352,"Upland"
"45313","kumeu @ weza","arc-00003",2004945,"auckland","arc","lowland","Urban",-36.7761949059392,174.560030905611,"03-Jul-2020","kumeu river","Rural",37.75,"Lowland"
"45373","riverhead forest stream","arc-00031",2004547,"auckland","arc","lowland","Forest",-36.7368760528028,174.535816947487,"03-Jul-2020","kumeu river","Forest",104,"Lowland"
"45415","kaukapakapa","arc-00057",2003453,"auckland","arc","lowland","Rural",-36.6305980747211,174.518986395919,"03-Jul-2020","kaukapakapa","Rural",66,"Lowland"
"45415","kaukapakapa @ taylors rd","arc-00035",2003453,"auckland","arc","lowland","Rural",-36.6305980747211,174.518986395919,"03-Jul-2020","kaukapakapa river","Rural",66,"Lowland"
"45505","makarau @ rail bridge","arc-00033",2002945,"auckland","arc","lowland","Rural",-36.5566003309383,174.520676593504,"03-Jul-2020","makarau river","Rural",31,"Lowland"
"45703","hoteo river @ gubbs","nrwqn-00002",2001653,"auckland","arc","lowland","Rural",-36.3843999998662,174.509890000504,"03-Jul-2020","hoteo river","Rural",49.5,"Lowland"
"6604","matakana ltb","arc-00008",2001381,"auckland","arc","lowland","Rural",-36.3450174080717,174.711828900139,"03-Jul-2020","matakana river","Rural",39,"Lowland"
"6804","mahurangi river ws","arc-00006",2001738,"auckland","arc","lowland","Rural",-36.3995100000981,174.660039999807,"03-Jul-2020","mahurangi river","Rural",77,"Lowland"
"6811","mahurangi river fhq","arc-00005",2002015,"auckland","arc","upland","Forest",-36.4484700004014,174.648799999662,"03-Jul-2020","mahurangi river","Forest",144,"Lowland"
"7104","waiwera stream","arc-00026",2002902,"auckland","arc","lowland","Rural",-36.5509800002913,174.660499999938,"03-Jul-2020","waiwera stream","Rural",100,"Lowland"
"7171","nukumea upper","arc-00038",2003052,"auckland","arc","upland","Forest",-36.5711630781172,174.66982770771,"03-Jul-2020","nukumea","Forest",84.25,"Lowland"
"7206","west hoe","arc-00095",2003137,"auckland","arc","upland","Forest",-36.5786026116897,174.657581801958,"03-Jul-2020","orewa","Forest",84,"Lowland"
"7206","west hoe ltb","arc-00027",2003137,"auckland","arc","upland","Forest",-36.5786026116897,174.657581801958,"03-Jul-2020","west hoe stream","Forest",84,"Lowland"
"74401","onetangi @ waiheke rd","arc-00039",2005178,"auckland","arc","upland","Rural",-36.7916799996744,175.087370000038,"03-Jul-2020","onetangi stream","Forest",80,"Lowland"
"74701","cascades @ whakanewha","arc-00040",2005391,"auckland","arc","upland","Rural",-36.5785202997045,174.6576180003,"03-Jul-2020","waiheke cascade stream","Forest",138,"Lowland"
"7502","okura creek@awanohi road","arc-00133",2003966,"auckland","arc","lowland","Forest",-36.6696044220034,174.714807838948,"03-Jul-2020","okura creek","Forest",77,"Lowland"
"7506","vaughan lower","arc-00024",2004122,"auckland","arc","lowland","Rural",-36.6843809245859,174.739454858364,"03-Jul-2020","vaughans stream","Rural",33.5,"Lowland"
"7805","rangitopuni @ walkers","nrwqn-00001",2004588,"auckland","arc","lowland","Rural",-36.7370200003061,174.619389999615,"03-Jul-2020","rangitopuni river","Rural",19,"Lowland"
"7811","oteha","arc-00074",2004535,"auckland","arc","upland","Urban",-36.7319383405032,174.694780269022,"03-Jul-2020","oteha","Urban",27.5,"Lowland"
"7811","oteha stream","arc-00074",2004535,"auckland","arc","upland","Urban",-36.7319383405032,174.694780269022,"03-Jul-2020","lucas creek","Urban",27.5,"Lowland"
"7830","lucas creek","arc-00004",2004500,"auckland","arc","lowland","Urban",-36.7230799998745,174.696200000487,"03-Jul-2020","lucas creek","Urban",68.5,"Lowland"
"7904","opanuku stream","arc-00013",2005960,"auckland","arc","lowland","Rural",-36.894914600398,174.594663650363,"03-Jul-2020","opanuku stream","Forest",44,"Lowland"
"8019","avondale @ shadbolt","arc-00036",2006297,"auckland","arc","lowland","Urban",-36.9232796028548,174.69177897747,"03-Jul-2020","avondale","Urban",34,"Lowland"
"8110","oakley ltb","arc-00010",2005765,"auckland","arc","lowland","Urban",-36.8761606721293,174.704774371726,"03-Jul-2020","oakley creek","Urban",30,"Lowland"
"8205","otara ck kennel hill","arc-00016",2006642,"auckland","arc","lowland","Urban",-36.9557021247356,174.890620893947,"03-Jul-2020","otara creek","Rural",19,"Lowland"
"8214","otara ck east tamaki","arc-00015",2006681,"auckland","arc","lowland","Urban",-36.9622799997372,174.879980000169,"03-Jul-2020","otara creek","Urban",12,"Lowland"
"8215","pakuranga ck greenmt","arc-00019",2006372,"auckland","arc","lowland","Urban",-36.9333699999196,174.902940000534,"03-Jul-2020","pakuranga creek","Urban",30.6666666666667,"Lowland"
"8217","pakuranga ck botany","arc-00018",2006226,"auckland","arc","lowland","Urban",-36.9132399996139,174.916080000186,"03-Jul-2020","pakuranga creek","Urban",42,"Lowland"
"8219","otaki creek","arc-00014",2006774,"auckland","arc","lowland","Urban",-36.9665900004076,174.845649999983,"03-Jul-2020","otaki creek","Urban",9,"Lowland"
"8249","omaru @ maybury st","arc-00034",2005837,"auckland","arc","lowland","Urban",-36.8805199996514,174.862999999614,"03-Jul-2020","omaru creek","Urban",15,"Lowland"
"8516","wairoa","arc-00090",2007481,"auckland","arc","lowland","Forest",-37.0133496793293,175.053186127794,"03-Jul-2020","wairoa","Rural",27.5,"Lowland"
"8516","wairoa river","arc-00090",2007481,"auckland","arc","lowland","Forest",-37.0133496793293,175.053186127794,"03-Jul-2020","wairoa river","Rural",27.5,"Lowland"
"8569","wairoa @ caitchen rd trib","arc-00030",2008323,"auckland","arc","upland","Forest",-37.0924583719574,175.101432631445,"03-Jul-2020","wairoa river","Forest",221,"Upland"
"AK1","Hoteo at Gubbs (NRWQN) (AK1)","nrwqn-00002",2001655,"auckland","niwa","lowland","Rural",-36.3852729797363,174.516967773438,"2019-07-11",NA,"Rural",39,"Lowland"
"AK2","Rangitopuni at Walkers (NRWQN) (AK2)","arc-00082",2004645,"auckland","niwa","Lowland","Rural",-36.7442817687988,174.617904663086,"2019-07-11",NA,"Rural",27,"Lowland"
"Akatarawa River at Hutt Confluence","akatarawa river at hutt confluence","gw-00025",9009342,"wellington","gwrc","lowland","Forest",-41.08952998,175.09766097,"03-Jul-2020","hutt river","Forest",97,"Lowland"
"Aparima River at Dunrobin","aparima river at dunrobin","es-00004",15034889,"southland","es","upland","Forest",-45.737409990996,168.1203806593,"03-Jul-2020","aparima river","Forest",311.5,"Upland"
"Aparima River at Thornbury","aparima river at thornbury","es-00072",15057386,"southland","es","lowland","Rural",-46.2859273277536,168.082923403251,"03-Jul-2020","aparima river","Rural",16,"Lowland"
"Arawhata Drain at Hokio Beach Road","arawhata drain at hokio beach road","hrc-00001",7046139,"horizons","hrc","lowland","Rural",-40.6219,175.24728,"03-Jul-2020","lake horowhenua","Rural",19.9300003052,"Lowland"
"Are Are Creek at Kaituna Tuamarina Track","are are creek at kaituna tuamarina track","mdc-00001",11017507,"marlborough","mdc","lowland","Rural",-41.46644209,173.82486088,"03-Jul-2020","unstated","Rural",60,"Lowland"
"Arnold Rv @ Blairs Rd No. 2 Br","arnold rv @ blairs rd no. 2 br","wcrc-00031",12020636,"west coast","wcrc","lowland","Forest",-42.48180414,171.37623219,"03-Jul-2020","grey river","Forest",41,"Lowland"
"Arnold Rv @ Kotuku Fishing Access","arnold rv @ kotuku fishing access","wcrc-00032",12030196,"west coast","wcrc","lowland","Forest",-42.55666403,171.45947445,"03-Jul-2020","grey river","Forest",92,"Lowland"
"Aropaoanui River at Aropaoanui","39","hbrc-00024",8019520,"hawkes bay","hbrc","lowland","Rural",-39.270118425078,176.978862008366,"03-Jul-2020","waikari","Rural",55,"Lowland"
"AVON01","avon river at pages/seaview bridge","ccc-00012",45582,"canterbury","ecan","lowland","Urban",-43.5109612586597,172.721312654641,"03-Jul-2020","6668000","Urban",0,"Lowland"
"AVON02","avon river at bridge street","ccc-00013",46167,"canterbury","ecan","lowland","Urban",-43.5269609130163,172.723800118103,"03-Jul-2020","6668000","Urban",0,"Lowland"
"AVON03","avon river at dallington terrace/gayhurst road","ccc-00009",45769,"canterbury","ecan","lowland","Urban",-43.5232541352865,172.672709377272,"03-Jul-2020","6668000","Urban",0.424641758204,"Lowland"
"AVON04","avon river at manchester street","ccc-00007",46232,"canterbury","ecan","lowland","Urban",-43.5297168443237,172.639621835872,"03-Jul-2020","6668000","Urban",0,"Lowland"
"AVON05","wairarapa stream","ccc-00001",46010,"canterbury","ecan","lowland","Urban",-43.5222119317298,172.607012899531,"03-Jul-2020","6668800","Urban",7,"Lowland"
"AVON06","waimairi stream","ccc-00002",46105,"canterbury","ecan","lowland","Urban",-43.5233902165382,172.606782674794,"03-Jul-2020","6668000","Urban",7,"Lowland"
"AVON07","avon river at mona vale","ccc-00003",46105,"canterbury","ecan","lowland","Urban",-43.5245285539517,172.608036996872,"03-Jul-2020","6668000","Urban",7,"Lowland"
"AVON08","riccarton main drain","ccc-00005",46403,"canterbury","ecan","lowland","Urban",-43.53364735907,172.616452586676,"03-Jul-2020","6668000","Urban",5,"Lowland"
"AVON09","addington brook","ccc-00006",46643,"canterbury","ecan","lowland","Urban",-43.5355540897489,172.621488125689,"03-Jul-2020","6668000","Urban",5,"Lowland"
"AVON10","dudley creek","ccc-00008",45694,"canterbury","ecan","lowland","Urban",-43.5147495497519,172.660548678238,"03-Jul-2020","6668500","Urban",0,"Lowland"
"AVON11","horseshoe lake discharge","ccc-00010",45487,"canterbury","ecan","lowland","Urban",-43.5045155077624,172.682479186561,"03-Jul-2020","6668000","Urban",2,"Lowland"
"AVON12","avon river at carlton mill corner","ccc-00004",46032,"canterbury","ecan","lowland","Urban",-43.5226691608001,172.625402289893,"03-Jul-2020","6668000","Urban",5,"Lowland"
"AVON13","avon river at avondale road bridge","ccc-00011",45364,"canterbury","ecan","lowland","Urban",-43.502162275476,172.687560852363,"03-Jul-2020","6668000","Urban",2,"Lowland"
"Awanui Stream at Flume","48","hbrc-00090",8026385,"hawkes bay","hbrc","lowland","Rural",-39.6908403197993,176.798436491851,"03-Jul-2020","karamu","Rural",9.75,"Lowland"
"Awapuni Drain Site 6 U/S Of Rayonier at Fenceline","awapuni drain site 6","lawa-102234",5013321,"gisborne","gdc","lowland","Rural",-38.69545828,177.94182729,"03-Jul-2020","awapuni drain","Rural",3,"Lowland"
"Awatere River at Awapiri","awatere river at awapiri","mdc-00003",11028051,"marlborough","mdc","upland","Rural",-41.83477611,173.73081669,"03-Jul-2020","awatere river","Forest",459,"Upland"
"Awatere River at River Mouth","awatere river at river mouth","mdc-00002",11021862,"marlborough","mdc","lowland","Rural",-41.60808432,174.15146174,"03-Jul-2020","unstated","Forest",22,"Lowland"
"Awatere River at SH35 Bridge","awatere river at sh35 bridge","gdc-00002",5000717,"gisborne","gdc","lowland","Rural",-37.67457224,178.34813828,"03-Jul-2020","awatere river","Forest",62.5,"Lowland"
"Awhea River at Tora Rd","awhea river at tora rd","gw-00053",9017635,"wellington","gwrc","lowland","Rural",-41.4945283,175.515193,"03-Jul-2020","awhea river","Rural",131,"Lowland"
"AX1","Clutha at Luggate Br. (NRWQN) (AX1)","nrwqn-00032",14014867,"otago","niwa","upland","Rural",-44.7292785644531,169.280044555664,"2019-07-11",NA,"Forest",347,"Upland"
"AX2","Kawarau at Chard Rd (NRWQN) (AX2)","nrwqn-00030",14027411,"otago","niwa","Upland","Rural",-45.0063629150391,168.868743896484,"2019-07-11",NA,"Rural",405,"Upland"
"AX3","Shotover at Bowens Peak (NRWQN) (AX3)","nrwqn-00031",14026862,"otago","niwa","upland","Rural",-44.9899711608887,168.714981079102,"2019-07-11",NA,"Forest",375,"Upland"
"AX4","Clutha at Millers Flat (NRWQN) (AX4)","nrwqn-00027",14055262,"otago","niwa","lowland","Rural",-45.6647491455078,169.410064697266,"2019-07-11",NA,"Forest",60,"Lowland"
"Baker Ck @ Baker Ck Rd","baker ck @ baker ck rd","wcrc-00027",12003098,"west coast","wcrc","lowland","Forest",-41.24401316,172.14600626,"03-Jul-2020","baker creek","Forest",48,"Lowland"
"Baker Ck @ Oparara Rd","baker ck @ oparara rd","wcrc-00028",12003074,"west coast","wcrc","lowland","Rural",-41.24605607,172.13011843,"03-Jul-2020","baker creek","Rural",10,"Lowland"
"Berry Ck @ N Brch Wanganui Flat Rd","berry ck @ n brch wanganui flat rd","wcrc-00021",12039314,"west coast","wcrc","lowland","Rural",-43.0840546,170.56915426,"03-Jul-2020","wanganui river","Rural",32,"Lowland"
"Black Birch Stream at Awatere Intake","black birch stream at awatere intake","mdc-00004",11024343,"marlborough","mdc","upland","Forest",-41.70749614,173.88026864,"03-Jul-2020","unstated","Forest",423.75,"Upland"
"Blackwater Ck @ Farm 846","blackwater ck @ farm 846","wcrc-00030",12003748,"west coast","wcrc","lowland","Rural",-41.30719863,172.09717193,"03-Jul-2020","blackwater creek","Rural",17,"Lowland"
"Bog Burn d/s Hundred Line Road","bog burn d/s hundred line road","es-00048",15048787,"southland","es","lowland","Rural",-46.0623949587389,168.234734679969,"03-Jul-2020","oreti river","Rural",85,"Lowland"
"BQ708712","te rereatukahia at sh2","ebop-00027",4000415,"bay of plenty","boprc","lowland","Rural",-37.5770915770481,175.911188609567,"03-Jul-2020","te rereatukahia","Rural",21,"Lowland"
"BQ711622","te mania at sh2","ebop-00026",4000427,"bay of plenty","boprc","lowland","Rural",-37.5851497196765,175.911808371647,"03-Jul-2020","te mania","Rural",14,"Lowland"
"BQ723939","uretara at henry rd ford","ebop-00052",4000415,"bay of plenty","boprc","lowland","Rural",-37.5565881128289,175.912099144522,"03-Jul-2020","uretara","Rural",21,"Lowland"
"BQ739463","waitekohe at sh2","ebop-00040",4000461,"bay of plenty","boprc","lowland","Forest",-37.5993647067078,175.915601617197,"03-Jul-2020","waitekohe","Forest",212,"Upland"
"BQ966369","aongatete at sh2","ebop-00001",4000490,"bay of plenty","boprc","lowland","Rural",-37.6073828302249,175.941409491124,"03-Jul-2020","aongatete","Rural",16,"Lowland"
"BR809582","tuapiro at hikurangi rd","ebop-00028",4000162,"bay of plenty","boprc","lowland","Rural",-37.4984489368448,175.919507525151,"03-Jul-2020","tuapiro","Rural",16,"Lowland"
"Bradshaws Ck @ Bradshaw Rd","bradshaws ck @ bradshaw rd","wcrc-00016",12010385,"west coast","wcrc","lowland","Rural",-41.76023604,171.54501704,"03-Jul-2020","bradshaws creek","Rural",31,"Lowland"
"Branch River at Weir Intake","branch river at weir intake","mdc-00005",11024066,"marlborough","mdc","upland","Forest",-41.70014713,173.18326957,"03-Jul-2020","branch","Forest",383,"Upland"
"Brook at Burn Pl","brook at burn pl","ncc-00011",10011130,"nelson","ncc","lowland","Forest",-41.28921044,173.29170139,"03-Jul-2020","unstated","Forest",80,"Lowland"
"Brook at Manuka St","brook at manuka st","ncc-00010",10011130,"nelson","ncc","lowland","Urban",-41.27825433,173.28918088,"03-Jul-2020","unstated","Forest",80,"Lowland"
"Brook at Motor Camp","brook at motor camp","ncc-00012",10011130,"nelson","ncc","lowland","Forest",-41.31154835,173.29221908,"03-Jul-2020","unstated","Forest",80,"Lowland"
"BS961133","waiau at waiau rd ford","ebop-00030",4000069,"bay of plenty","boprc","lowland","Rural",-37.4484483244256,175.934796941143,"03-Jul-2020","waiau","Rural",18,"Lowland"
"Burkes Ck @ SH69","burkes ck @ sh69","wcrc-00005",12019493,"west coast","wcrc","upland","Rural",-42.08800417,171.84740747,"03-Jul-2020","lower buller","Rural",207,"Upland"
"Cardrona at Mt Barker","cardrona river at mt barker","orc-00103",14015751,"otago","orc","upland","Rural",-44.75005579,169.11690806,"03-Jul-2020","unstated","Forest",445,"Upland"
"Carran Creek at Waituna Lagoon Road","carran creek at waituna lagoon road","es-00057",15061958,"southland","es","lowland","Rural",-46.5427930869726,168.651157054852,"03-Jul-2020","waituna creek","Rural",5,"Lowland"
"Cascade Stream at Pourakino Valley Road","cascade stream at pourakino valley road","es-00006",15056487,"southland","es","lowland","Forest",-46.249498924569,167.935858078261,"03-Jul-2020","aparima river","Forest",34,"Lowland"
"Catlins at Houipapa","catlins river at houipapa","orc-00105",14072850,"otago","orc","lowland","Rural",-46.46115241,169.55050121,"03-Jul-2020","unstated","Rural",23,"Lowland"
"CH1","Hurunui at Mandamus (NRWQN) (CH1)","ecan-00240",13020391,"canterbury","niwa","Upland","Forest",-42.7904052734375,172.541549682617,"2019-07-11",NA,"Forest",340,"Upland"
"CH2","Hurunui at SH1 Br. (NRWQN) (CH2)","nrwqn-00059",13023994,"canterbury","niwa","Upland","Rural",-42.8984451293945,173.096618652344,"2019-07-11",NA,"Rural",215,"Upland"
"CH3","Waimakariri at Gorge (NRWQN) (CH3)","nrwqn-00055",13040481,"canterbury","niwa","upland","Rural",-43.3590126037598,172.051177978516,"2019-07-11",NA,"Forest",319,"Upland"
"CH4","Waimakariri above old HW Br. (NRWQN) (CH4)","ecan-10028",13042296,"canterbury","niwa","Lowland","Rural",-43.4172859191895,172.641754150391,"2019-07-11",NA,"Rural",6,"Lowland"
"Clive River U/S Whakatu Rail Bridge","1925","hbrc-00003",8025012,"hawkes bay","hbrc","lowland","Rural",-39.5990526056829,176.877875548744,"03-Jul-2020","karamu","Rural",10,"Lowland"
"CO543022","ngamuwahine at old bridge","ebop-00009",4002930,"bay of plenty","boprc","lowland","Forest",-37.816784458299,176.015399445936,"03-Jul-2020","wairoa","Forest",177.5,"Upland"
"CO938527","wairoa d/s ruahihi power station","ebop-00036",4002072,"bay of plenty","boprc","lowland","Forest",-37.7701834581922,176.058395583913,"03-Jul-2020","wairoa","Forest",44,"Lowland"
"Collins at SH6","collins at sh6","ncc-00038",10008409,"nelson","ncc","lowland","Forest",-41.15972008,173.53368155,"03-Jul-2020","unstated","Forest",213,"Upland"
"CP466747","waipapa at old highway","ebop-00035",4000795,"bay of plenty","boprc","lowland","Rural",-37.6617415079616,176.000395344288,"03-Jul-2020","waipapa","Rural",36.5,"Lowland"
"Cromel Stream at Selbie Road","cromel stream at selbie road","es-00012",15027427,"southland","es","upland","Forest",-45.5813773655988,168.37384442081,"03-Jul-2020","oreti river","Forest",323,"Upland"
"Crooked Rv @ Rotomanu-Bell Hill Rd","crooked rv @ rotomanu-bell hill rd","wcrc-00033",12031538,"west coast","wcrc","lowland","Forest",-42.63002914,171.59664514,"03-Jul-2020","grey river","Forest",120.333333333333,"Lowland"
"Crooked Rv @ Te Kinga","crooked rv @ te kinga","wcrc-00039",12031043,"west coast","wcrc","lowland","Forest",-42.60115919,171.49737356,"03-Jul-2020","grey river","Forest",83,"Lowland"
"Crookston Burn at Kelso Road","crookston burn at kelso road","orc-00096",14062956,"otago","orc","upland","Rural",-45.89854092,169.23515025,"03-Jul-2020","unstated","Rural",182.25,"Upland"
"Cullen Creek at Road Bridge","cullen creek at road bridge","mdc-00006",11011611,"marlborough","mdc","lowland","Forest",-41.29465472,173.85758011,"03-Jul-2020","unstated","Forest",23,"Lowland"
"Dart at The Hillocks","dart river at the hillocks","orc-00107",14017708,"otago","orc","upland","Forest",-44.77397608,168.32442871,"03-Jul-2020","unstated","Rural",404.6,"Upland"
"Deep Ck @ Arnold Vly Rd Br","deep ck @ arnold vly rd br","wcrc-00001",12029932,"west coast","wcrc","lowland","Rural",-42.5525352,171.45514239,"03-Jul-2020","grey river","Rural",120,"Lowland"
"Dencker at Kokorua Rd","dencker at kokorua rd","ncc-00039",10007963,"nelson","ncc","lowland","Forest",-41.14096842,173.53693741,"03-Jul-2020","unstated","Forest",143.666666666667,"Lowland"
"Dipton Stream at South Hillend-Dipton Road","dipton stream at south hillend-dipton road","es-00163",15046191,"southland","es","lowland","Rural",-45.9827622824049,168.312332032032,"03-Jul-2020","oreti river","Rural",843.5,"Upland"
"DN1","Taieri at Tiroiti (NRWQN) (DN1)","nrwqn-00029",14038229,"otago","niwa","upland","Rural",-45.2565460205078,170.272842407227,"2019-07-11",NA,"Rural",347,"Upland"
"DN10","Monowai below Gates (NRWQN) (DN10)","nrwqn-00034",15038868,"southland","niwa","Upland","Forest",-45.8050117492676,167.534240722656,"2019-07-11",NA,"Forest",204,"Upland"
"DN2","Sutton at SH87 (NRWQN) (DN2)","nrwqn-00028",14052240,"otago","niwa","Upland","Rural",-45.5962066650391,170.094131469727,"2019-07-11",NA,"Rural",250,"Upland"
"DN3","Taieri at Outram (NRWQN) (DN3)","nrwqn-00026",14060642,"otago","niwa","lowland","Rural",-45.8464393615723,170.243927001953,"2019-07-11",NA,"Rural",27,"Lowland"
"DN4","Clutha at Balclutha (NRWQN) (DN4)","nrwqn-00025",14070075,"otago","niwa","lowland","Rural",-46.2372817993164,169.747955322266,"2019-07-11",NA,"Urban",27,"Lowland"
"DN5","Mataura at Seaward Down (NRWQN) (DN5)","es-00102",15059298,"southland","niwa","Lowland","Rural",-46.3895072937012,168.797119140625,"2019-07-11",NA,"Rural",91,"Lowland"
"DN6","Mataura at Parawa (NRWQN) (DN6)","es-00024",15025929,"southland","niwa","upland","Rural",-45.5582504272461,168.561233520508,"2019-07-11",NA,"Rural",429.333333333333,"Upland"
"DN7","Oreti at Lumsden (NRWQN) (DN7)","es-00011",15033324,"southland","niwa","upland","Rural",-45.7162437438965,168.428131103516,"2019-07-11",NA,"Rural",213,"Upland"
"DN8","Oreti at Riverton HW Br. (NRWQN) (DN8)","es-00010",15057908,"southland","niwa","Lowland","Rural",-46.3262634277344,168.265930175781,"2019-07-11",NA,"Rural",9,"Lowland"
"DN9","Waiau at Tuatapere (NRWQN) (DN9)","es-00001",15052505,"southland","niwa","lowland","Rural",-46.1302833557129,167.685806274414,"2019-07-11",NA,"Forest",22,"Lowland"
"DO047598","omanawa at sh29","ebop-00013",4002044,"bay of plenty","boprc","lowland","Forest",-37.7545342603477,176.070120033999,"03-Jul-2020","wairoa","Forest",29,"Lowland"
"DO686858","waimapu 100m d/s sh29","ebop-00033",4001685,"bay of plenty","boprc","lowland","Rural",-37.7381884351537,176.141918776596,"03-Jul-2020","waimapu","Rural",20.6666666666667,"Lowland"
"DO712717","waimapu at pukemapu rd","ebop-00032",4001763,"bay of plenty","boprc","lowland","Rural",-37.7507801226566,176.14544731734,"03-Jul-2020","waimapu","Rural",41,"Lowland"
"Doctors Creek Upstream Taylor","doctors creek upstream taylor","mdc-00008",11018976,"marlborough","mdc","lowland","Rural",-41.51472761,173.94246076,"03-Jul-2020","unstated","Rural",6,"Lowland"
"DP281304","wairoa at sh2","ebop-00037",4001207,"bay of plenty","boprc","lowland","Forest",-37.6992169435331,176.094403671783,"03-Jul-2020","wairoa","Forest",19,"Lowland"
"DP784306","kopurererua at sh2","ebop-00006",4001195,"bay of plenty","boprc","lowland","Urban",-37.6975746328178,176.151257931251,"03-Jul-2020","kopurererua","Rural",19,"Lowland"
"Duck Ck @ Kokatahi-Kowhitirangi Rd Br","duck ck @ kokatahi-kowhitirangi rd br","wcrc-00013",12035323,"west coast","wcrc","lowland","Rural",-42.83256048,171.03231518,"03-Jul-2020","hokitika river","Rural",26,"Lowland"
"Duncan Stream at Outlet","duncan stream at outlet","mdc-00007",11011381,"marlborough","mdc","lowland","Rural",-41.28193721,173.90219322,"03-Jul-2020","unstated","Rural",257,"Upland"
"Dunsdale Stream at Dunsdale Reserve","dunsdale stream at dunsdale reserve","es-00016",15051163,"southland","es","lowland","Forest",-46.1347057505432,168.601870071154,"03-Jul-2020","oreti river","Forest",161,"Upland"
"Dunstan Creek at Beattie Road","dunstan creek at beattie road","orc-00012",14022310,"otago","orc","upland","Rural",-44.93943275,169.76486579,"03-Jul-2020","unstated","Forest",437,"Upland"
"EK598179","puarenga at fri","ebop-00019",4013244,"bay of plenty","boprc","upland","Rural",-38.1564389941754,176.263799380814,"03-Jul-2020","kaituna","Rural",294.5,"Upland"
"EL174017","ngongotaha at sh36","ebop-00010",4010395,"bay of plenty","boprc","upland","Rural",-38.0823576072631,176.212205642004,"03-Jul-2020","kaituna","Rural",369.25,"Upland"
"Ellis Ck @ 50m d/s Ferry Rd Br","ellis ck @ 50m d/s ferry rd br","wcrc-00020",12037749,"west coast","wcrc","lowland","Rural",-42.98688033,170.703026,"03-Jul-2020","waitaha","Rural",9.66666666666667,"Lowland"
"Enaki Stream D/S site for Riparian","enaki stream upstream of mangatarere stream confluence","lawa-100394",9007826,"wellington","gwrc","lowland","Rural",-41.02534566,175.49726909,"03-Jul-2020","unstated","Rural",71,"Lowland"
"EO451883","waitao at waitao rd","ebop-00039",4001499,"bay of plenty","boprc","lowland","Rural",-37.7336210997026,176.228499689903,"03-Jul-2020","waitao area","Rural",37,"Lowland"
"EP623312","rocky at mangatawa lane","ebop-00023",4001210,"bay of plenty","boprc","lowland","Rural",-37.6944799012024,176.246312200819,"03-Jul-2020","maungatawa area","Rural",15,"Lowland"
"Esk River at Berry Road","176","hbrc-00022",8018541,"hawkes bay","hbrc","upland","Rural",-39.2294717695501,176.796762547934,"03-Jul-2020","esk river","Rural",304.5,"Upland"
"Esk River at Waipunga Bridge","182","hbrc-00002",8021730,"hawkes bay","hbrc","lowland","Rural",-39.3853701500731,176.821159325303,"03-Jul-2020","esk river","Rural",247,"Upland"
"FL230406","ohau channel at sh33","ebop-00012",4009042,"bay of plenty","boprc","upland","Rural",-38.0439971161231,176.330840055897,"03-Jul-2020","kaituna","Rural",286,"Upland"
"FL356693","kaituna at rotoiti outlet","ebop-00007",4008095,"bay of plenty","boprc","upland","Rural",-38.0177585587837,176.343976823451,"03-Jul-2020","kaituna","Rural",323,"Upland"
"Flaxbourne River at Quarry","flaxbourne river at quarry","mdc-00009",11028010,"marlborough","mdc","lowland","Rural",-41.83359628,174.17396926,"03-Jul-2020","unstated","Rural",127,"Lowland"
"FN834668","kaituna at maungarangi rd","ebop-00003",4003662,"bay of plenty","boprc","lowland","Rural",-37.8384673935175,176.390192548793,"03-Jul-2020","kaituna","Rural",19,"Lowland"
"FO620177","kaituna at te matai","ebop-00057",4002830,"bay of plenty","boprc","lowland","Rural",-37.7934217549296,176.363800997398,"03-Jul-2020","kaituna","Rural",8.7598183155075,"Lowland"
"Ford Ck @ Blackball-Taylorville Rd","ford ck @ blackball-taylorville rd","wcrc-00004",12026540,"west coast","wcrc","lowland","Forest",-42.37775303,171.41290187,"03-Jul-2020","grey river","Forest",72,"Lowland"
"Fraser at Marshall Road","fraser river at marshall road","orc-00013",14039213,"otago","orc","lowland","Rural",-45.24738821,169.35625335,"03-Jul-2020","unstated","Rural",141,"Lowland"
"GJ662805","tarawera at lake outlet","ebop-00051",4014379,"bay of plenty","boprc","upland","Forest",-38.1832613030459,176.500596760016,"03-Jul-2020","tarawera","Forest",531.5,"Upland"
"GM781934","pongakawa at pumphouse","ebop-00047",4005113,"bay of plenty","boprc","lowland","Rural",-37.9013550234117,176.500737085208,"03-Jul-2020","pongakawa","Rural",45,"Lowland"
"GN849464","pongakawa at old coach rd","ebop-00017",4004139,"bay of plenty","boprc","lowland","Rural",-37.8534811960477,176.506195407174,"03-Jul-2020","pongakawa","Rural",103,"Lowland"
"GN922883","pongakawa at sh2","ebop-00016",4003250,"bay of plenty","boprc","lowland","Rural",-37.8155217087343,176.512698416166,"03-Jul-2020","pongakawa","Rural",17,"Lowland"
"Graham River at Road Bridge","graham river at road bridge","mdc-00010",11011032,"marlborough","mdc","lowland","Forest",-41.27076198,174.07392726,"03-Jul-2020","unstated","Forest",14,"Lowland"
"Groom at Maitai Confluence","groom at maitai confluence","ncc-00018",10010859,"nelson","ncc","lowland","Forest",-41.2881737,173.32561357,"03-Jul-2020","unstated","Forest",1,"Lowland"
"GS1","Waipaoa at Kanakanaia (NRWQN) (GS1)","gdc-00027",5010399,"gisborne","niwa","Upland","Rural",-38.4685478210449,177.881820678711,"2019-07-11",NA,"Rural",177,"Upland"
"GS2","Waikohu at No. 1 Br. (NRWQN) (GS2)","nrwqn-00011",5009160,"gisborne","niwa","upland","Rural",-38.4150047302246,177.561676025391,"2019-07-11",NA,"Rural",517,"Upland"
"GS3","Motu at Waitangirua (NRWQN) (GS3)","nrwqn-00012",4016589,"bay of plenty","niwa","upland","Rural",-38.1997337341309,177.621002197266,"2019-07-11",NA,"Rural",630,"Upland"
"GS4","Motu at Houpoto (NRWQN) (GS4)","ebop-00045",4005222,"bay of plenty","niwa","lowland","Forest",-37.8636932373047,177.632278442383,"2019-07-11",NA,"Forest",139,"Lowland"
"GY1","Buller at Te Kuha (NRWQN) (GY1)","nrwqn-00053",12012463,"west coast","niwa","lowland","Forest",-41.8349266052246,171.699829101563,"2019-07-11",NA,"Forest",566,"Upland"
"GY2","Grey at Dobson (NRWQN) (GY2)","nrwqn-00051",12028095,"west coast","niwa","lowland","Forest",-42.453540802002,171.297882080078,"2019-07-11",NA,"Forest",13,"Lowland"
"GY3","Grey at Waipuna (NRWQN) (GY3)","nrwqn-00052",12025710,"west coast","niwa","upland","Forest",-42.3544578552246,171.786163330078,"2019-07-11",NA,"Forest",243,"Upland"
"GY4","Haast at Roaring Billy (NRWQN) (GY4)","nrwqn-00050",12052271,"otago","niwa","lowland","Forest",-43.9424743652344,169.297927856445,"2019-07-11",NA,"Forest",942,"Upland"
"Haast at Roaring Billy","haast at roaring billy","nrwqn-00050",12052271,"otago","orc","upland","Forest",-43.93995405,169.2968615,"03-Jul-2020","unstated","Forest",942,"Upland"
"HALS03","nottingham stream at candys road","ccc-00036",48172,"canterbury","ecan","lowland","Rural",-43.5960820755419,172.560469911407,"03-Jul-2020","6781700","Rural",0,"Lowland"
"HALS04","halswell river at akaroa highway (tai tapu road)","ccc-00038",48844,"canterbury","ecan","lowland","Rural",-43.6083092292221,172.559316723578,"03-Jul-2020","6780000","Rural",66,"Lowland"
"HALS05","knights stream at sabys road","ccc-00037",48525,"canterbury","ecan","lowland","Rural",-43.5980955591596,172.550424215425,"03-Jul-2020","6780000","Rural",3,"Lowland"
"Hamanatua Stream at Okitu Bridge","hamanatua stream at okitu bridge","gdc-00032",5013269,"gisborne","gdc","lowland","Rural",-38.67822058,178.08004372,"03-Jul-2020","hamanatua","Rural",23,"Lowland"
"Hamilton Burn at Affleck Road","hamilton burn at affleck road","es-00164",15036486,"southland","es","upland","Rural",-45.7848090419463,168.191258548416,"03-Jul-2020","aparima river","Rural",244,"Upland"
"Hangaroa River at Doneraille Park","279","hbrc-00032",8003680,"hawkes bay","hbrc","lowland","Rural",-38.7334297866137,177.584339842185,"03-Jul-2020","wairoa river","Rural",439,"Upland"
"Harris Ck @ Mulvaney Rd","harris ck @ mulvaney rd","wcrc-00014",12035613,"west coast","wcrc","lowland","Rural",-42.8525437,171.0115477,"03-Jul-2020","hokitika river","Rural",15.5,"Lowland"
"Hautapu at Alabasters","hautapu at alabasters","hrc-00003",7023817,"horizons","hrc","upland","Rural",-39.6568799999999,175.78086,"03-Jul-2020","rangitikei","Rural",507,"Upland"
"Hautapu at d/s Taihape STP","hautapu at d/s taihape stp","lawa-101919",7024391,"horizons","hrc","upland","Rural",-39.68303099,175.816911,"03-Jul-2020","rangitikei","Rural",424.5,"Upland"
"Hautapu at Papakai Road Bridge","hautapu at papakai road bridge","lawa-100545",7024128,"horizons","hrc","upland","Rural",-39.6721439099999,175.8026666,"03-Jul-2020","rangitikei","Rural",443.25,"Upland"
"Hautapu at US Rangitikei River Conf","hautapu at us rangitikei river conf","hrc-00002",7026047,"horizons","hrc","upland","Rural",-39.7537599999999,175.83617,"03-Jul-2020","rangitikei","Rural",389,"Upland"
"Hawea at Camphill Bridge","hawea river at camphill bridge","orc-00015",14011901,"otago","orc","upland","Rural",-44.65045243,169.24640206,"03-Jul-2020","unstated","Forest",319,"Upland"
"HEATH01","heathcote river at ferrymead bridge","ccc-00027",47241,"canterbury","ecan","lowland","Urban",-43.559910251614,172.708799883464,"03-Jul-2020","6664100","Urban",1,"Lowland"
"HEATH02","heathcote river at tunnel road","ccc-00026",47145,"canterbury","ecan","lowland","Urban",-43.5563186448341,172.691268649199,"03-Jul-2020","6664000","Urban",2.67674636841,"Lowland"
"HEATH03","heathcote river at opawa road/clarendon terrace","ccc-00023",47078,"canterbury","ecan","lowland","Urban",-43.5556017193212,172.666472146971,"03-Jul-2020","6664000","Urban",8.55736923218,"Lowland"
"HEATH04","heathcote river at bowenvale avenue","ccc-00022",47708,"canterbury","ecan","lowland","Urban",-43.5720568323126,172.643184667368,"03-Jul-2020","6664700","Urban",7,"Lowland"
"HEATH05","cashmere stream at worsleys road","ccc-00020",47855,"canterbury","ecan","lowland","Urban",-43.5775960140065,172.616312750997,"03-Jul-2020","6664910","Urban",6,"Lowland"
"HEATH06","heathcote river at rose street","ccc-00018",47077,"canterbury","ecan","lowland","Urban",-43.5707152325921,172.612271040374,"03-Jul-2020","6664000","Urban",64,"Lowland"
"HEATH07","heathcote river at ferniehurst street","ccc-00021",47656,"canterbury","ecan","lowland","Urban",-43.5734881315978,172.617910682521,"03-Jul-2020","6664000","Urban",64,"Lowland"
"HEATH08","heathcote river at templetons road","ccc-00014",47128,"canterbury","ecan","lowland","Urban",-43.5617741065307,172.577833809996,"03-Jul-2020","6664000","Urban",18,"Lowland"
"HEATH09","haytons stream at retention basin","ccc-00015",47128,"canterbury","ecan","lowland","Urban",-43.5554877149543,172.579189062079,"03-Jul-2020","6664000","Urban",15,"Lowland"
"HEATH10","curletts road stream upstream of heathcote river","ccc-00016",47088,"canterbury","ecan","lowland","Urban",-43.5544930878685,172.590432667221,"03-Jul-2020","6664000","Urban",13,"Lowland"
"HEATH11","heathcote river at catherine street","ecan-10005",46901,"canterbury","ecan","lowland","Urban",-43.5532364348419,172.683104461899,"03-Jul-2020","6664000","Urban",2.64374089241,"Lowland"
"HEATH12","heathcote river at mackenzie avenue","ccc-00024",46901,"canterbury","ecan","lowland","Urban",-43.5528995571183,172.672043169022,"03-Jul-2020","6664000","Urban",6.68731880188,"Lowland"
"HEATH14","curletts road stream at motorway","ccc-00017",46905,"canterbury","ecan","lowland","Urban",-43.548646774227,172.58400022271,"03-Jul-2020","6664000","Urban",13,"Lowland"
"HEATH16","cashmere stream at sutherlands road","ccc-00019",48186,"canterbury","ecan","lowland","Rural",-43.5879724435027,172.579770063283,"03-Jul-2020","6664900","Rural",46,"Lowland"
"Hedgehope Stream 20m u/s Makarewa Confluence","hedgehope stream 20m u/s makarewa confl","es-00165",15056334,"southland","es","lowland","Rural",-46.2667698347913,168.453503410746,"03-Jul-2020","oreti river","Rural",29,"Lowland"
"Herehere Stream at Te Aute Road","310","hbrc-00067",8026084,"hawkes bay","hbrc","lowland","Rural",-39.6722056442898,176.866223188135,"03-Jul-2020","karamu","Rural",11,"Lowland"
"Heriot Burn at Park Hill Road","heriot burn at park hill road","orc-00017",14062378,"otago","orc","upland","Rural",-45.87150623,169.21244457,"03-Jul-2020","unstated","Rural",158,"Upland"
"Hikuwai River at No 4 Bridge","hikuwai river at no 4 bridge","gdc-00003",5006266,"gisborne","gdc","lowland","Rural",-38.20389326,178.25582994,"03-Jul-2020","uawa river","Rural",42.5,"Lowland"
"Hikuwai River at Willowflat","hikuwai river at willowflat","gdc-00004",5007406,"gisborne","gdc","lowland","Rural",-38.29225747,178.26918382,"03-Jul-2020","uawa river","Rural",134.333333333333,"Lowland"
"Hillwood at Glen Rd","hillwood at glen rd","ncc-00040",10009289,"nelson","ncc","lowland","Rural",-41.20348936,173.35949584,"03-Jul-2020","unstated","Rural",0,"Lowland"
"HM1","Waipa at Otewa (NRWQN) (HM1)","nrwqn-00040",3029287,"waikato","niwa","lowland","Rural",-38.2687072753906,175.348266601563,"2019-07-11",NA,"Rural",215,"Upland"
"HM2","Waipa at Whatawhata (NRWQN) (HM2)","nrwqn-00041",3017829,"waikato","niwa","lowland","Rural",-37.7985610961914,175.15185546875,"2019-07-11",NA,"Rural",21.75,"Lowland"
"HM3","Waikato at Hamilton Traffic Br. (NRWQN) (HM3)","ew-00124",3017804,"waikato","niwa","Lowland","Rural",-37.7922019958496,175.289093017578,"2019-07-11",NA,"Rural",40,"Lowland"
"HM4","Waikato at Rangiriri (NRWQN) (HM4)","nrwqn-00044",3010661,"waikato","niwa","lowland","Rural",-37.4320983886719,175.13151550293,"2019-07-11",NA,"Rural",13,"Lowland"
"HM5","Waihou at Te Aroha (NRWQN) (HM5)","nrwqn-00043",3013014,"waikato","niwa","lowland","Rural",-37.5466270446777,175.706771850586,"2019-07-11",NA,"Rural",40,"Lowland"
"HM6","Ohinemuri at Karangahake (NRWQN) (HM6)","nrwqn-00045",3010506,"waikato","niwa","lowland","Rural",-37.414794921875,175.715286254883,"2019-07-11",NA,"Rural",122.5660800934,"Lowland"
"HN674689","Waitahanui at Otamarakau Marae","ebop-00038",4003723,"bay of plenty","boprc","lowland","Rural",-37.8304503881097,176.598798594433,"03-Jul-2020","waitahanui","Rural",14,"Lowland"
"Hohonu Rv @ Mitchells-Kumara Rd Br","hohonu rv @ mitchells-kumara rd br","wcrc-00036",12031547,"west coast","wcrc","upland","Forest",-42.64485315,171.35324867,"03-Jul-2020","grey river","Forest",308,"Upland"
"Hohonu Rv @ Mouth","hohonu rv @ mouth","wcrc-00040",12031252,"west coast","wcrc","lowland","Forest",-42.61157882,171.41325576,"03-Jul-2020","grey river","Forest",93,"Lowland"
"Hokio at Lake Horowhenua","hokio at lake horowhenua","hrc-00004",7045750,"horizons","hrc","lowland","Rural",-40.605,175.23608,"03-Jul-2020","lake horowhenua","Rural",30.5,"Lowland"
"Horokiri Stream at Snodgrass","horokiri stream at snodgrass","gw-00013",9009035,"wellington","gwrc","lowland","Rural",-41.07930266,174.92617299,"03-Jul-2020","horokiri stream","Rural",36,"Lowland"
"Huangarua River at Ponatahi Bridge","huangarua river at ponatahi bridge","gw-00051",9012636,"wellington","gwrc","lowland","Rural",-41.20800072,175.46909416,"03-Jul-2020","ruamahanga river","Rural",29,"Lowland"
"Hutt River at Boulcott","hutt river at boulcott","gw-00022",9012031,"wellington","gwrc","lowland","Forest",-41.19670926,174.92047746,"03-Jul-2020","hutt river","Forest",63,"Lowland"
"Hutt River at Kaitoke","hutt river at kaitoke","nrwqn-00047",9008427,"wellington","gwrc","upland","Forest",-41.05101129,175.19123118,"03-Jul-2020","unstated","Forest",417,"Upland"
"Hutt River at Te Marua Intake Site","hutt river at te marua intake site","gw-00020",9009042,"wellington","gwrc","lowland","Forest",-41.07991041,175.14363637,"03-Jul-2020","hutt river","Forest",138,"Lowland"
"Hutt River Opposite Manor Park Golf Club","hutt river opposite manor park golf club","gw-00021",9010876,"wellington","gwrc","lowland","Forest",-41.15364323,174.98644435,"03-Jul-2020","hutt river","Forest",58,"Lowland"
"HV1","Makaroro at Burnt Br. (NRWQN) (HV1)","nrwqn-00013",8028042,"hawkes bay","niwa","upland","Forest",-39.8178787231445,176.303985595703,"2019-07-11",NA,"Forest",376.2,"Upland"
"HV2","Tukituki at Red Br. (NRWQN) (HV2)","hbrc-00043",8026815,"hawkes bay","niwa","lowland","Rural",-39.7153930664063,176.927017211914,"2019-07-11",NA,"Rural",45.5,"Lowland"
"HV3","Ngaruroro at Chesterhope (NRWQN) (HV3)","nrwqn-00014",8025078,"hawkes bay","niwa","lowland","Rural",-39.596435546875,176.872451782227,"2019-07-11",NA,"Urban",14,"Lowland"
"HV4","Ngaruroro at Kuripapango (NRWQN) (HV4)","lawa-100218",8021350,"hawkes bay","niwa","Upland","Forest",-39.3799285888672,176.330612182617,"2019-07-11",NA,"Forest",500,"Upland"
"HV5","Mohaka at Raupunga (NRWQN) (HV5)","nrwqn-00017",8014818,"hawkes bay","niwa","lowland","Forest",-39.0735664367676,177.12907409668,"2019-07-11",NA,"Rural",34,"Lowland"
"HV6","Mohaka at Glenfalls (NRWQN) (HV6)","nrwqn-00016",8017299,"hawkes bay","niwa","upland","Forest",-39.1777572631836,176.634796142578,"2019-07-11",NA,"Rural",419,"Upland"
"IG265664","rangitaiki at murupara","ebop-00048",4022486,"bay of plenty","boprc","upland","Forest",-38.4601551204011,176.69768552677,"03-Jul-2020","rangitaiki","Forest",195,"Upland"
"IG691428","whirinaki at galatea","ebop-00053",4022892,"bay of plenty","boprc","upland","Forest",-38.4798169932264,176.747577277343,"03-Jul-2020","rangitaiki","Forest",230,"Upland"
"Ihungia River at Ihungia Rd Br","ihungia river at ihungia rd br","gdc-00005",5004508,"gisborne","gdc","Upland","Forest",-38.04691689,178.1766513,"03-Jul-2020","waiapu","Rural",220,"Upland"
"IK555889","tarawera at kawerau bridge","ebop-00024",4010551,"bay of plenty","boprc","lowland","Forest",-38.0802784158219,176.712421137622,"03-Jul-2020","tarawera","Forest",26.25,"Lowland"
"IL818464","tarawera at sh30","ebop-00025",4008565,"bay of plenty","boprc","lowland","Forest",-38.0265092686686,176.738648828543,"03-Jul-2020","tarawera","Forest",3.537569582463,"Lowland"
"Irthing Stream at Ellis Road","irthing stream at ellis road","es-00013",15031719,"southland","es","upland","Rural",-45.6796047663668,168.425875807601,"03-Jul-2020","oreti river","Rural",218,"Upland"
"Jenkins at Pascoe St","jenkins at pascoe st","ncc-00006",10011583,"nelson","ncc","lowland","Urban",-41.295048,173.24084684,"03-Jul-2020","unstated","Urban",27.25,"Lowland"
"JK491452","rangitaiki at matahina dam","ebop-00021",4012263,"bay of plenty","boprc","lowland","Forest",-38.1150203795324,176.819978908605,"03-Jul-2020","rangitaiki","Forest",39,"Lowland"
"JL350292","rangitaiki at te teko","ebop-00070",4009262,"bay of plenty","boprc","lowland","Forest",-38.0400378942047,176.800003428746,"03-Jul-2020","rangitaiki","Forest",-3,"Lowland"
"JM102399","tarawera at awakaponga","ebop-00075",4005288,"bay of plenty","boprc","lowland","Rural",-37.9414091255637,176.766690971962,"03-Jul-2020","tarawera","Rural",-21.96124916078,"Lowland"
"Kahahakuri Stream U/S Tukituki Confl","2003","lawa-100648",8030837,"hawkes bay","hbrc","upland","Rural",-39.9767936624507,176.505357946485,"03-Jul-2020","tukituki river","Rural",185.5,"Upland"
"Kahuterawa at Johnstons Rata","kahuterawa at johnstons rata","hrc-00005",7041729,"horizons","hrc","lowland","Forest",-40.4490699999999,175.62164,"03-Jul-2020","manawatu","Rural",174.666666666667,"Upland"
"Kahuterawa at Keebles Farm","kahuterawa at keebles farm","hrc-00345",7040374,"horizons","hrc","lowland","Rural",-40.39313,175.59101,"03-Jul-2020","manawatu","Rural",45,"Lowland"
"Kai Iwi at Handley Road","kai-iwi at handley road","hrc-00090",6016794,"horizons","hrc","lowland","Rural",-39.88036412,174.9010782,"03-Jul-2020","kai iwi","Rural",20,"Lowland"
"Kaikorai Stream at Brighton Road","kaikorai stream at brighton road","orc-00021",14062358,"otago","orc","lowland","Urban",-45.90427956,170.42170867,"03-Jul-2020","unstated","Urban",28,"Lowland"
"Kaituna River at Higgins Bridge","kaituna river at higgins bridge","mdc-00012",11012188,"marlborough","mdc","lowland","Rural",-41.31128476,173.77473321,"03-Jul-2020","kaituna","Rural",2.5,"Lowland"
"Kaiwharawhara Stream at Ngaio Gorge","kaiwharawhara stream at ngaio gorge","gw-00019",9013489,"wellington","gwrc","lowland","Urban",-41.25798289,174.77940709,"03-Jul-2020","kaiwharawhara stream","Urban",244,"Upland"
"Kakanui at Clifton Falls Bridge","kakanui river at clifton falls br","orc-00115",14026079,"otago","orc","lowland","Rural",-45.03179169,170.75220051,"03-Jul-2020","unstated","Rural",103,"Lowland"
"Kakanui at McCones","kakanui river at mccones","orc-00025",14032923,"otago","orc","lowland","Rural",-45.17720505,170.881087,"03-Jul-2020","unstated","Rural",20.25,"Lowland"
"Karakatuwhero River at SH35 Br","karakatuwhero river at sh35 br","gdc-00006",5000331,"gisborne","gdc","lowland","Rural",-37.62563187,178.33460144,"03-Jul-2020","karakatuwhero river","Forest",1,"Lowland"
"Karewarewa Stream at Paki Paki","400","hbrc-00014",8026382,"hawkes bay","hbrc","lowland","Rural",-39.6939276374835,176.790917066045,"03-Jul-2020","karamu","Rural",9,"Lowland"
"Karori Stream at Makara Peak Mountain Bike Park","karori stream at makara peak mountain bike park","gw-00018",9014420,"wellington","gwrc","lowland","Urban",-41.29542655,174.72253616,"03-Jul-2020","karori stream","Urban",135,"Lowland"
"Kauru at Ewings","kauru at ewings","orc-00117",14030211,"otago","orc","upland","Rural",-45.11102763,170.73635297,"03-Jul-2020","unstated","Rural",172,"Upland"
"Kawarau at Chards Road","kawarau at chards road","nrwqn-00030",14027411,"otago","orc","upland","Rural",-45.0063712,168.86873471,"03-Jul-2020","unstated","Rural",405,"Upland"
"Kenepuru Stream at Kenepuru Head","kenepuru stream at kenepuru head","mdc-00011",11008632,"marlborough","mdc","lowland","Rural",-41.16612951,174.12387854,"03-Jul-2020","unstated","Forest",6,"Lowland"
"Kioreau Stream at Porangahau Road","6683","lawa-102703",8031775,"hawkes bay","hbrc","lowland","Rural",-40.0364336922242,176.529611920711,"03-Jul-2020","tukituki river","Rural",132.5,"Lowland"
"Kiwitea at Kimbolton Rd","kiwitea at kimbolton rd","hrc-00346",7036107,"horizons","hrc","lowland","Rural",-40.2109,175.59674,"03-Jul-2020","manawatu","Rural",101,"Lowland"
"KL998150","whakatane at pekatahi bridge","ebop-00042",4010027,"bay of plenty","boprc","lowland","Forest",-38.0465484125758,176.987968121962,"03-Jul-2020","whakatane","Forest",40.5,"Lowland"
"Kopuaranga River at Stuarts","kopuaranga river at stuarts","gw-00038",9004627,"wellington","gwrc","lowland","Rural",-40.89357041,175.69179599,"03-Jul-2020","ruamahanga river","Rural",141,"Lowland"
"Kopuawhakapata Stream at Hirini St","kopuawhakapata stream at hirini st","gdc-00007",5013240,"gisborne","gdc","lowland","Urban",-38.67070898,178.03168577,"03-Jul-2020","kopuawhakapata","Urban",23.7718315125,"Lowland"
"Kopuawhara Stream at Railway Bridge","441","hbrc-00029",8013534,"hawkes bay","hbrc","lowland","Forest",-39.0143637897516,177.858250356098,"03-Jul-2020","nuhaka","Forest",156,"Upland"
"Koputaroa at Tavistock Rd","koputaroa at tavistock rd","hrc-00347",7045635,"horizons","hrc","lowland","Rural",-40.5966799999999,175.33744,"03-Jul-2020","manawatu","Rural",19,"Lowland"
"Kumeti at Te Rehunga","kumeti at te rehunga","hrc-00006",7036367,"horizons","hrc","upland","Rural",-40.21971,176.01202,"03-Jul-2020","manawatu","Rural",275,"Upland"
"Kye Burn at SH85 Bridge","kye burn at sh85 bridge","orc-00098",14032836,"otago","orc","upland","Rural",-45.15003543,170.26123708,"03-Jul-2020","unstated","Rural",383,"Upland"
"L Horowhenua Inflow at culv d/s Queen St","l horowhenua inflow at culv d/s queen st","lawa-101921",7046085,"horizons","hrc","lowland","Urban",-40.61066464,175.266236,"03-Jul-2020","lake horowhenua","Urban",19.9300003052,"Lowland"
"L Horowhenua Inflow at Hokio Sand Rd","l horowhenua inflow at hokio sand rd","lawa-101922",7046256,"horizons","hrc","lowland","Rural",-40.6198832099999,175.23742,"03-Jul-2020","lake horowhenua","Rural",20,"Lowland"
"L Horowhenua Inflow at Lindsay Road","l horowhenua inflow at lindsay road","lawa-101923",7045380,"horizons","hrc","lowland","Rural",-40.58654365,175.2684342,"03-Jul-2020","lake horowhenua","Rural",19,"Lowland"
"La Fontaine Stm @ Airstrip Fishing Access","la fontaine stm @ airstrip fishing access","wcrc-00022",12038833,"west coast","wcrc","lowland","Rural",-43.06857049,170.51941215,"03-Jul-2020","wanganui river","Rural",8,"Lowland"
"La Fontaine Stm @ Herepo Fishing Access","la fontaine stm @ herepo fishing access","wcrc-00023",12039791,"west coast","wcrc","upland","Rural",-43.11252981,170.55326617,"03-Jul-2020","wanganui river","Rural",304,"Upland"
"Lake Hayes at Bendemeer Bay","lake hayes","orc-00031",14025778,"otago","orc","upland","Rural",-44.98194765,168.81587539,"03-Jul-2020","unstated","Rural",358,"Upland"
"Leith at Dundas Street Bridge","water of leith at dundas street bridge","orc-00095",14060534,"otago","orc","lowland","Urban",-45.86223451,170.51746769,"03-Jul-2020","unstated","Urban",85.5,"Lowland"
"Lill Burn at Lill Burn-Monowai Road","lill burn at lill burn-monowai road","es-00166",15047441,"southland","es","lowland","Forest",-46.0024211861941,167.669296552426,"03-Jul-2020","waiau river","Forest",121.5,"Lowland"
"Lindis at Ardgour Road","lindis river at ardgour road","orc-00041",14020507,"otago","orc","upland","Rural",-44.88495626,169.38427631,"03-Jul-2020","unstated","Forest",333,"Upland"
"Lindis at Lindis Peak","lindis river at lindis peak","orc-00040",14015093,"otago","orc","upland","Rural",-44.74537543,169.50782299,"03-Jul-2020","unstated","Forest",438,"Upland"
"Lindsays Creek at North Road Bridge","lindsays creek at north rd bridge","orc-00119",14060534,"otago","orc","lowland","Rural",-45.85174277,170.52383408,"03-Jul-2020","unstated","Urban",85.5,"Lowland"
"LK082095","whakatane at ruatoki","ebop-00041",4013567,"bay of plenty","boprc","lowland","Forest",-38.1410629954322,177.002809818585,"03-Jul-2020","whakatane","Rural",34,"Lowland"
"LK149881","tauranga at taneatua bridge","ebop-00031",4010772,"bay of plenty","boprc","lowland","Forest",-38.0701442364387,177.006514019474,"03-Jul-2020","whakatane","Forest",30,"Lowland"
"Longridge Stream at Sandstone","longridge stream at sandstone","es-00065",15040065,"southland","es","upland","Rural",-45.8863808434473,168.60145273655,"03-Jul-2020","mataura river","Rural",158,"Upland"
"Lud at 4.7km","lud at 4.7km","ncc-00030",10010316,"nelson","ncc","lowland","Rural",-41.25036732,173.3815591,"03-Jul-2020","unstated","Forest",133,"Lowland"
"Lud at SH6","lud at sh6","ncc-00029",10009772,"nelson","ncc","lowland","Rural",-41.21740564,173.39549217,"03-Jul-2020","unstated","Forest",196.5,"Upland"
"Luggate Creek at SH6 Bridge","luggate creek at sh6 bridge","orc-00043",14015273,"otago","orc","upland","Rural",-44.7484624,169.26871836,"03-Jul-2020","unstated","Forest",301,"Upland"
"Maharakeke Stream at State Highway 2 Br","491","lawa-102696",8031004,"hawkes bay","hbrc","upland","Rural",-39.9840519725912,176.476087300418,"03-Jul-2020","tukituki river","Rural",152.333333333333,"Upland"
"Mahiaruhe Stream at Tutira Outlet S.H.2","496","lawa-101795",8018203,"hawkes bay","hbrc","upland","Rural",-39.2102695299836,176.885033971225,"03-Jul-2020","waikari","Rural",160.369995117,"Upland"
"Main Drain at Waipori Pump","main drain at waipori pump","orc-00044",14063947,"otago","orc","lowland","Rural",-45.96822077,170.12896611,"03-Jul-2020","unstated","Rural",13,"Lowland"
"Maitai at Groom Rd","maitai at groom rd","ncc-00015",10010859,"nelson","ncc","lowland","Forest",-41.28842246,173.32683295,"03-Jul-2020","unstated","Forest",1,"Lowland"
"Maitai at Riverside","maitai at riverside","ncc-00013",10010859,"nelson","ncc","lowland","Urban",-41.27159588,173.28985592,"03-Jul-2020","unstated","Forest",1,"Lowland"
"Maitai South Branch at Intake","maitai south branch at intake","ncc-00016",10011665,"nelson","ncc","upland","Forest",-41.29941726,173.36691412,"03-Jul-2020","unstated","Forest",165,"Upland"
"Makakahi at d/s Eketahuna STP","makakahi at d/s eketahuna stp","lawa-101925",7046881,"horizons","hrc","upland","Rural",-40.6325591099999,175.714745,"03-Jul-2020","manawatu","Rural",221,"Upland"
"Makakahi at end Kaiparoro Road","makakahi at end kaiparoro road","hrc-00348",7048841,"horizons","hrc","upland","Forest",-40.71343,175.60673,"03-Jul-2020","manawatu","Forest",577,"Upland"
"Makakahi at Hamua","makakahi at hamua","hrc-00008",7044946,"horizons","hrc","upland","Rural",-40.56517,175.74511,"03-Jul-2020","manawatu","Rural",181,"Upland"
"Makakahi at u/s Eketahuna STP","makakahi at u/s eketahuna stp","hrc-00077",7047434,"horizons","hrc","upland","Rural",-40.6517499999999,175.7037,"03-Jul-2020","manawatu","Rural",241,"Upland"
"Makara Stream at Kennels","makara stream at kennels","gw-00017",9012604,"wellington","gwrc","lowland","Rural",-41.23595385,174.71271629,"03-Jul-2020","makara stream","Rural",75.5,"Lowland"
"Makara Stream at St Lawrence Road","514","lawa-102693",8029575,"hawkes bay","hbrc","lowland","Rural",-39.8838039008932,176.769347876539,"03-Jul-2020","tukituki river","Rural",198,"Upland"
"Makaretu Stream at State Highway 50","528","hbrc-00008",8031515,"hawkes bay","hbrc","upland","Rural",-40.0154307099668,176.323099476001,"03-Jul-2020","tukituki river","Rural",261,"Upland"
"Makaretu Stream U/S Maharakeke","531","lawa-102695",8030982,"hawkes bay","hbrc","upland","Rural",-39.9785818069872,176.478151863554,"03-Jul-2020","tukituki river","Rural",149,"Upland"
"Makarewa River at Lora Gorge Road","makarewa river at lora gorge road","es-00047",15048673,"southland","es","lowland","Rural",-46.0666514266213,168.482654787264,"03-Jul-2020","oreti river","Rural",82,"Lowland"
"Makarewa River at Wallacetown","makarewa river at wallacetown","es-00015",15058243,"southland","es","lowland","Rural",-46.3297954257162,168.299116272918,"03-Jul-2020","oreti river","Rural",10.5,"Lowland"
"Makaroro River at Burnt Bridge","533","lawa-100228",8028042,"hawkes bay","hbrc","Upland","Forest",-39.8187642407385,176.304052000106,"03-Jul-2020","tukituki river","Forest",376.2,"Upland"
"Makomako Road Drain at L Horowhenua","makomako road drain at l horowhenua","lawa-101927",7046182,"horizons","hrc","lowland","Urban",-40.61960763,175.2571286,"03-Jul-2020","lake horowhenua","Urban",39.5,"Lowland"
"Makotuku at Above Sewage Plant","makotuku at above sewage plant","hrc-00066",7017619,"horizons","hrc","upland","Rural",-39.43825,175.28904,"03-Jul-2020","whangaehu","Rural",510,"Upland"
"Makotuku at d/s Raetihi STP","makotuku at d/s raetihi stp","lawa-101929",7017619,"horizons","hrc","upland","Rural",-39.4377831799999,175.2854268,"03-Jul-2020","whangaehu","Rural",510,"Upland"
"Makotuku at Raetihi","makotuku at raetihi","hrc-00007",7017142,"horizons","hrc","upland","Rural",-39.4210199999999,175.2821,"03-Jul-2020","whangaehu","Rural",537,"Upland"
"Makotuku at SH49A","makotuku at sh49a","hrc-00009",7015868,"horizons","hrc","upland","Forest",-39.3714899999999,175.32457,"03-Jul-2020","whangaehu","Forest",634,"Upland"
"Makuri at Tuscan Hills","makuri at tuscan hills","hrc-00010",7044151,"horizons","hrc","lowland","Rural",-40.5236599999999,175.93115,"03-Jul-2020","manawatu","Rural",186.666666666667,"Upland"
"Manakau at S.H.1 Bridge","manakau at s.h.1 bridge","hrc-00011",7048887,"horizons","hrc","lowland","Rural",-40.7243799999999,175.21165,"03-Jul-2020","waikawa","Rural",48,"Lowland"
"Manawatu at d/s PNCC STP","manawatu at d/s pncc stp","lawa-101931",7040389,"horizons","hrc","lowland","Rural",-40.3940074599999,175.5834723,"03-Jul-2020","manawatu","Rural",19,"Lowland"
"Manawatu at ds Fonterra Longburn","manawatu at ds fonterra longburn","lawa-101932",7040581,"horizons","hrc","lowland","Rural",-40.4046547799999,175.5546929,"03-Jul-2020","manawatu","Rural",19,"Lowland"
"Manawatu at Hopelands","manawatu at hopelands","hrc-00016",7039708,"horizons","hrc","lowland","Rural",-40.3588599999999,175.96286,"03-Jul-2020","manawatu","Rural",109,"Lowland"
"Manawatu at Ngawapurua Bridge","manawatu at ngawapurua bridge","hrc-00014",7040333,"horizons","hrc","lowland","Rural",-40.38685,175.88985,"03-Jul-2020","manawatu","Rural",78,"Lowland"
"Manawatu at Opiki Br","manawatu at opiki bridge","hrc-00013",7041173,"horizons","hrc","lowland","Rural",-40.43535,175.46978,"03-Jul-2020","manawatu","Rural",10,"Lowland"
"Manawatu at Teachers College","manawatu at teachers college","hrc-00015",7039931,"horizons","hrc","lowland","Rural",-40.3732899999999,175.62773,"03-Jul-2020","manawatu","Rural",36,"Lowland"
"Manawatu at u/s PNCC STP","manawatu at u/s pncc stp","hrc-00080",7040164,"horizons","hrc","lowland","Rural",-40.38783,175.58234,"03-Jul-2020","manawatu","Rural",38,"Lowland"
"Manawatu at u/s PPCS Shannon","manawatu at u/s ppcs shannon","hrc-00082",7043795,"horizons","hrc","lowland","Rural",-40.5260299999999,175.39992,"03-Jul-2020","manawatu","Rural",10,"Lowland"
"Manawatu at Upper Gorge","manawatu at upper gorge","hrc-00017",7039002,"horizons","hrc","lowland","Rural",-40.33185,175.81803,"03-Jul-2020","manawatu","Rural",284,"Upland"
"Manawatu at us Fonterra Longburn","manawatu at us fonterra longburn","hrc-00081",7040368,"horizons","hrc","lowland","Rural",-40.39832,175.55681,"03-Jul-2020","manawatu","Rural",21,"Lowland"
"Manawatu at Weber Road","manawatu at weber road","hrc-00018",7037199,"horizons","hrc","upland","Rural",-40.23947,176.11638,"03-Jul-2020","manawatu","Rural",176,"Upland"
"Manawatu at Whirokino","manawatu at whirokino","hrc-00012",7043284,"horizons","hrc","lowland","Rural",-40.5115699999999,175.26837,"03-Jul-2020","manawatu","Rural",24,"Lowland"
"Mangaatua at d/s Woodville STP","mangaatua at d/s woodville stp","lawa-101933",7039403,"horizons","hrc","lowland","Rural",-40.3445402999999,175.8515346,"03-Jul-2020","manawatu","Rural",68,"Lowland"
"Mangaatua at u/s Woodville STP","mangaatua at u/s woodville stp","hrc-00076",7039409,"horizons","hrc","lowland","Rural",-40.34449,175.85389,"03-Jul-2020","manawatu","Rural",68,"Lowland"
"Mangaehu at Bridge","34309","trc-00001",6009244,"taranaki","trc","Upland","Rural",-39.388696695389,174.46659514071,"03-Jul-2020","patea river","Rural",169,"Upland"
"Mangaehuehu at d/s Rangataua STP","mangaehuehu at d/s rangataua stp","lawa-101934",7017318,"horizons","hrc","upland","Forest",-39.43163636,175.4637507,"03-Jul-2020","whangaehu","Forest",658,"Upland"
"Mangaehuehu at u/s Rangataua STP","mangaehuehu at u/s rangataua stp","hrc-00065",7017318,"horizons","hrc","upland","Forest",-39.43074,175.46372,"03-Jul-2020","whangaehu","Forest",658,"Upland"
"Mangahao at Ballance","mangahao at ballance","hrc-00019",7041259,"horizons","hrc","lowland","Rural",-40.43611,175.79173,"03-Jul-2020","manawatu","Rural",97,"Lowland"
"Mangaheia River at Paroa Road Bridge","mangaheia river at paroa road bridge","gdc-00008",5008439,"gisborne","gdc","lowland","Rural",-38.34737089,178.24910813,"03-Jul-2020","uawa river","Rural",41,"Lowland"
"Mangakuri River at Kairakau","546","hbrc-00053",8030950,"hawkes bay","hbrc","lowland","Rural",-39.9648866181699,176.906039535541,"03-Jul-2020","southern coast","Rural",16,"Lowland"
"Mangamahaki Stream at Tamumu","548","lawa-102692",8030747,"hawkes bay","hbrc","lowland","Rural",-39.9781919027137,176.693707539402,"03-Jul-2020","tukituki river","Rural",119,"Lowland"
"Manganui o te Ao at Ruatiti Domain","manganui o te ao at ruatiti domain","lawa-100557",7014299,"horizons","hrc","upland","Rural",-39.3135450999999,175.1987531,"03-Jul-2020","whanganui","Rural",290.5,"Upland"
"Mangaone River at Rissington","569","hbrc-00015",8022581,"hawkes bay","hbrc","lowland","Rural",-39.4403508155857,176.719099931679,"03-Jul-2020","tutaekuri river","Rural",78,"Lowland"
"Mangaone Stream at Sims Road Bridge","mangaone stream at sims road bridge","gw-00007",9001470,"wellington","gwrc","lowland","Rural",-40.79042456,175.0889146,"03-Jul-2020","mangaone stream","Rural",5,"Lowland"
"Mangaonuku Stream at Waipawa Tikokino Rd","589","hbrc-00020",8029835,"hawkes bay","hbrc","upland","Rural",-39.9070765709212,176.524815704774,"03-Jul-2020","tukituki river","Rural",155.5,"Upland"
"Mangaoporo River at Tutumatai Bridge","mangaoporo river at tutumatai bridge","gdc-00009",5002342,"gisborne","gdc","lowland","Rural",-37.83774273,178.29385929,"03-Jul-2020","waiapu","Rural",302,"Upland"
"Mangaoraka at Corbett Rd","39402","trc-00003",6002693,"taranaki","trc","Lowland","Rural",-39.0561874531992,174.185074587009,"03-Jul-2020","mangaoraka stream","Rural",57,"Lowland"
"Mangaorapa Stream at Mangaorapa Road","623","hbrc-00011",8034410,"hawkes bay","hbrc","lowland","Rural",-40.2945013145145,176.555849557043,"03-Jul-2020","porangahau river","Rural",113.5,"Lowland"
"Mangaore at d/s Shannon STP","mangaore at d/s shannon stp","lawa-101936",7044057,"horizons","hrc","lowland","Forest",-40.5368914599999,175.3982241,"03-Jul-2020","manawatu","Rural",0.977669239044,"Lowland"
"Mangaore at u/s Shannon STP","mangaore at u/s shannon stp","hrc-00074",7044058,"horizons","hrc","lowland","Forest",-40.5377299999999,175.40034,"03-Jul-2020","manawatu","Rural",0.977669239044,"Lowland"
"Mangapapa at Troup Rd","mangapapa at troup rd","hrc-00020",7039299,"horizons","hrc","lowland","Rural",-40.3419299999999,175.84788,"03-Jul-2020","manawatu","Rural",52,"Lowland"
"Mangapoike River at Suspension Bridge","636","hbrc-00083",8008131,"hawkes bay","hbrc","lowland","Rural",-38.890101839131,177.522145171798,"03-Jul-2020","wairoa river","Rural",139,"Lowland"
"Mangapouri Stream at Bennetts Rd","mangapouri stream at bennetts rd","gw-00002",9000495,"wellington","gwrc","lowland","Urban",-40.74299396,175.14078335,"03-Jul-2020","waitohu stream","Urban",21,"Lowland"
"Mangarangiora at d/s Ormondville STP","mangarangiora at d/s ormondville stp","lawa-101937",7034342,"horizons","hrc","upland","Rural",-40.11587804,176.2708569,"03-Jul-2020","manawatu","Rural",280,"Upland"
"Mangarangiora at u/s Ormondville STP","mangarangiora at u/s ormondville stp","lawa-101938",7034342,"horizons","hrc","upland","Rural",-40.1155075899999,176.2708977,"03-Jul-2020","manawatu","Rural",280,"Upland"
"Mangarangiora trib at ds Norsewood STP","mangarangiora trib at ds norsewood stp","lawa-101939",7033682,"horizons","hrc","upland","Rural",-40.0842257699999,176.2230681,"03-Jul-2020","manawatu","Rural",346,"Upland"
"Mangarangiora Trib at us Norsewood STP","mangarangiora trib at us norsewood stp","hrc-00086",7033682,"horizons","hrc","upland","Rural",-40.08064,176.2229,"03-Jul-2020","manawatu","Rural",346,"Upland"
"Mangaroa River at Te Marua","mangaroa river at te marua","gw-00024",9009586,"wellington","gwrc","lowland","Rural",-41.09432204,175.1280911,"03-Jul-2020","hutt river","Rural",164,"Upland"
"Mangatainoka at Brewery - S.H.2 Bridge","mangatainoka at brewery - s.h.2 bridge","hrc-00024",7041260,"horizons","hrc","lowland","Rural",-40.42268,175.86191,"03-Jul-2020","manawatu","Rural",93,"Lowland"
"Mangatainoka at d/s DB Breweries","mangatainoka at d/s db breweries","lawa-101940",7041260,"horizons","hrc","lowland","Rural",-40.41887136,175.870005,"03-Jul-2020","manawatu","Rural",93,"Lowland"
"Mangatainoka at d/s Pahiatua STP","mangatainoka at d/s pahiatua stp","lawa-101941",7041605,"horizons","hrc","lowland","Rural",-40.43847492,175.8425347,"03-Jul-2020","manawatu","Rural",100,"Lowland"
"Mangatainoka at Larsons Road","mangatainoka at larsons road","hrc-00022",7046821,"horizons","hrc","upland","Forest",-40.6403599999999,175.61099,"03-Jul-2020","manawatu","Rural",302,"Upland"
"Mangatainoka at Pahiatua Town Bridge","mangatainoka at pahiatua town bridge","hrc-00023",7041713,"horizons","hrc","lowland","Rural",-40.4495699999999,175.83121,"03-Jul-2020","manawatu","Rural",112,"Lowland"
"Mangatainoka at Putara","mangatainoka at putara","hrc-00021",7048086,"horizons","hrc","upland","Forest",-40.6805199999999,175.54746,"03-Jul-2020","manawatu","Forest",425.333333333333,"Upland"
"Mangatainoka at Scarborough Konini Rd","mangatainoka at scarborough konini rd","hrc-00343",7042591,"horizons","hrc","lowland","Rural",-40.4756599999999,175.79573,"03-Jul-2020","manawatu","Rural",128.333333333333,"Lowland"
"Mangatainoka at u/s Pahiatua STP","mangatainoka at u/s pahiatua stp","hrc-00083",7041605,"horizons","hrc","lowland","Rural",-40.4394399999999,175.84022,"03-Jul-2020","manawatu","Rural",109,"Lowland"
"Mangatainoka at u/s Tiraumea Confluence","mangatainoka at u/s tiraumea confluence","hrc-00344",7040681,"horizons","hrc","lowland","Rural",-40.4026299999999,175.88269,"03-Jul-2020","manawatu","Rural",81,"Lowland"
"Mangatarata Stream at Mangatarata Road","667","hbrc-00018",8031291,"hawkes bay","hbrc","lowland","Rural",-39.9960672563847,176.626866274438,"03-Jul-2020","tukituki river","Rural",127,"Lowland"
"Mangatarere River at State Highway 2","mangatarere river at state highway 2","gw-00050",9008718,"wellington","gwrc","lowland","Rural",-41.05477704,175.49618121,"03-Jul-2020","ruamahanga river","Rural",56,"Lowland"
"Mangatera at d/s Dannevirke STP","mangatera at d/s dannevirke stp","lawa-101942",7036883,"horizons","hrc","upland","Rural",-40.22644299,176.1017423,"03-Jul-2020","manawatu","Rural",181,"Upland"
"Mangatera at Dannevirke","mangatera at dannevirke","hrc-00075",7036853,"horizons","hrc","lowland","Rural",-40.22455,176.10159,"03-Jul-2020","manawatu","Rural",182,"Upland"
"Mangatera at u/s Manawatu confluence","mangatera at u/s manawatu confluence","hrc-00025",7037051,"horizons","hrc","upland","Rural",-40.24085,176.0988,"03-Jul-2020","manawatu","Rural",164,"Upland"
"Mangatera at u/s T.D.C. Ox Ponds","mangatera at u/s t.d.c. ox ponds","lawa-101943",7036883,"horizons","hrc","upland","Rural",-40.2247147699999,176.1016987,"03-Jul-2020","manawatu","Rural",181,"Upland"
"Mangatewainui at Hardys","mangatewainui at hardys","hrc-00351",7035888,"horizons","hrc","upland","Rural",-40.16978,176.19306,"03-Jul-2020","manawatu","Rural",217,"Upland"
"Mangatoro at Mangahei Road","mangatoro at mangahei road","hrc-00026",7037306,"horizons","hrc","upland","Rural",-40.24468,176.18953,"03-Jul-2020","manawatu","Rural",219.666666666667,"Upland"
"Mangatu River at Omapere Station","mangatu river at omapere station","gdc-00010",5008473,"gisborne","gdc","lowland","Rural",-38.37861727,177.79314223,"03-Jul-2020","waipaoa","Rural",186.5,"Upland"
"Mangatutu Str at Sh35-Waipahuru Bridge","mangatutu str at sh35-waipahuru bridge","lawa-100336",5000205,"gisborne","gdc","lowland","Rural",-37.59944782,178.26023485,"03-Jul-2020","wharekahika river","Forest",198,"Upland"
"Mangatutu Stream at Mangatutu Stn Br","684","hbrc-00079",8022284,"hawkes bay","hbrc","upland","Rural",-39.4264106145226,176.5537373821,"03-Jul-2020","tutaekuri river","Rural",239,"Upland"
"Mangawhero at d/s Ohakune STP","mangawhero at d/s ohakune stp","lawa-101944",7016830,"horizons","hrc","upland","Rural",-39.40812617,175.3827436,"03-Jul-2020","whangaehu","Rural",558,"Upland"
"Mangawhero at DOC Headquarters","mangawhero at doc headquarters","hrc-00029",7016679,"horizons","hrc","upland","Forest",-39.4016999999999,175.41228,"03-Jul-2020","whangaehu","Forest",618,"Upland"
"Mangawhero at Pakihi Rd Bridge","mangawhero at pakihi rd bridge","hrc-00028",7017464,"horizons","hrc","upland","Rural",-39.431,175.32311,"03-Jul-2020","whangaehu","Rural",543.5,"Upland"
"Mangawhero at Raupiu Road","mangawhero at raupiu road","hrc-00027",7024561,"horizons","hrc","lowland","Rural",-39.70028,175.33113,"03-Jul-2020","whangaehu","Rural",277,"Upland"
"Mangawhero at u/s Ohakune STP","mangawhero at u/s ohakune stp","hrc-00064",7016830,"horizons","hrc","upland","Rural",-39.40901,175.38394,"03-Jul-2020","whangaehu","Rural",558,"Upland"
"Manuherikia at Galloway","manuherikia river at galloway","orc-00046",14037981,"otago","orc","upland","Rural",-45.22638046,169.4306264,"03-Jul-2020","unstated","Rural",160.5,"Upland"
"Manuherikia at Ophir","manuherikia river at ophir","orc-00047",14031628,"otago","orc","upland","Rural",-45.11085125,169.59158896,"03-Jul-2020","unstated","Rural",321,"Upland"
"Maraekakaho Stream at Maraekakaho","698","hbrc-00075",8025585,"hawkes bay","hbrc","lowland","Rural",-39.6496366016263,176.62240766159,"03-Jul-2020","ngaruroro","Rural",126.666666666667,"Lowland"
"Maraetotara River at Te Awanga","714","hbrc-00004",8025568,"hawkes bay","hbrc","lowland","Rural",-39.6392669750758,176.988103325095,"03-Jul-2020","southern coast","Rural",11,"Lowland"
"Maraetotara River at Waimarama Road","715","hbrc-00012",8027138,"hawkes bay","hbrc","lowland","Rural",-39.7326748786465,176.953001337223,"03-Jul-2020","southern coast","Rural",193,"Upland"
"Mararoa River at South Mavora Lake","mararoa river at south mavora lake","es-00003",15016464,"southland","es","upland","Forest",-45.3158287755195,168.179275975,"03-Jul-2020","waiau river","Forest",617,"Upland"
"Mararoa River at The Key","mararoa river at the key","es-00045",15026532,"southland","es","upland","Rural",-45.541514151631,167.888330498612,"03-Jul-2020","waiau river","Forest",312.5,"Upland"
"Mararoa River at Weir Road","mararoa river at weir road","es-00002",15029370,"southland","es","upland","Rural",-45.6061614579925,167.702255644554,"03-Jul-2020","waiau river","Rural",227,"Upland"
"Mata River at Aorangi (Makarika Road)","mata river at aorangi (makarika road)","gdc-00011",5003470,"gisborne","gdc","lowland","Rural",-37.94877976,178.21088895,"03-Jul-2020","waiapu","Rural",200,"Upland"
"Mata River at Pouturu Br","mata river at pouturu br","lawa-100348",5004528,"gisborne","gdc","upland","Forest",-38.04748307,178.12338148,"03-Jul-2020","waiapu","Rural",352,"Upland"
"Mataura River 200m d/s Mataura Bridge","mataura river 200m d/s mataura bridge","es-00022",15053378,"southland","es","lowland","Rural",-46.1985696291369,168.863521606528,"03-Jul-2020","mataura river","Rural",54,"Lowland"
"Mataura River at Gore","mataura river at gore","es-00037",15049205,"southland","es","lowland","Urban",-46.1002193469584,168.949448755793,"03-Jul-2020","mataura river","Rural",74,"Lowland"
"Mataura River at Mataura Island Bridge","mataura river at mataura island bridge","es-00021",15059279,"southland","es","lowland","Rural",-46.3890685346813,168.777560827914,"03-Jul-2020","mataura river","Rural",18,"Lowland"
"Mataura River at Parawa","mataura river at parawa","es-00024",15025929,"southland","es","upland","Rural",-45.5594017593903,168.561467430689,"03-Jul-2020","mataura river","Rural",429.333333333333,"Upland"
"Matawai Stream at Tawai","matawai stream at tawai","lawa-100332",4021512,"gisborne","gdc","upland","Rural",-38.38021422,177.55207132,"03-Jul-2020","motu river","Rural",581,"Upland"
"Matukituki at West Wanaka","matukituki river at west wanaka","orc-00048",14011802,"otago","orc","upland","Rural",-44.63582466,168.990675,"03-Jul-2020","unstated","Forest",290,"Upland"
"Mawheraiti Rv @ Atarau Br","mawheraiti river at atarau bridge","lawa-102196",12023961,"west coast","wcrc","lowland","Rural",-42.27079969,171.67144481,"03-Jul-2020","grey river","Forest",102,"Lowland"
"Mawheraiti Rv @ SH7 Maimai","mawheraiti rv @ sh7 maimai","wcrc-00006",12022404,"west coast","wcrc","lowland","Forest",-42.1988594,171.71895519,"03-Jul-2020","grey river","Forest",141.5,"Lowland"
"MGH000950","mangaehu river at raupuha rd bridge","trc-00001",6009244,"taranaki","trc","lowland","Rural",-39.388696695389,174.46659514071,"03-Jul-2020","patea river","Rural",169,"Upland"
"Mill Creek at Fish Trap","mill creek at fish trap.","orc-00049",14025453,"otago","orc","upland","Rural",-44.96747122,168.81436833,"03-Jul-2020","unstated","Rural",332.3899993895,"Upland"
"Mill Creek at Ormonds","mill creek at ormonds","mdc-00013",11019999,"marlborough","mdc","upland","Rural",-41.56218999,173.5138337,"03-Jul-2020","wairau river","Rural",169,"Upland"
"Mimihau Stream at Wyndham","mimihau stream at wyndham","es-00044",15057605,"southland","es","lowland","Rural",-46.3211744547906,168.860121400877,"03-Jul-2020","mataura river","Rural",32,"Lowland"
"Mimihau Stream Tributary at Venlaw Forest","mimihau stream tributary at venlaw forest","es-00029",15056983,"southland","es","upland","Forest",-46.3096253091344,169.082228480021,"03-Jul-2020","mataura river","Forest",351,"Upland"
"MK307635","nukuhou at glenholme rd","ebop-00062",4011135,"bay of plenty","boprc","lowland","Rural",-38.0876915281408,177.139409587158,"03-Jul-2020","nukuhou","Rural",19,"Lowland"
"MKW000300","maketawa stream at tarata rd.","trc-00002",6004420,"taranaki","trc","lowland","Rural",-39.1553326474269,174.259022657298,"03-Jul-2020","waitara river","Rural",150,"Upland"
"ML715056","Waiotahe at Toone Rd","lawa-100395",4009990,"bay of plenty","boprc","lowland","Forest",-38.048228714927,177.183676915395,"03-Jul-2020","waiotahi","Forest",40,"Lowland"
"Moffat Creek at Moffat Road","moffat creek at moffat road","es-00106",15062000,"southland","es","lowland","Rural",-46.5401704522622,168.57029804379,"03-Jul-2020","waituna creek","Rural",9,"Lowland"
"Mohaka River at Raupunga","749","nrwqn-00017",8014919,"hawkes bay","hbrc","lowland","Forest",-39.0729794036262,177.129264555505,"03-Jul-2020","mohaka river","Forest",183,"Upland"
"Mohaka River D/S Ripia River","5274","hbrc-00071",8017939,"hawkes bay","hbrc","upland","Forest",-39.2072916203254,176.516996009466,"03-Jul-2020","mohaka river","Forest",405,"Upland"
"Mohaka River D/S Taharua","753","hbrc-00070",8014053,"hawkes bay","hbrc","upland","Forest",-39.0822605808052,176.307462859409,"03-Jul-2020","mohaka river","Forest",686.333333333333,"Upland"
"Mohaka River D/S Waipunga River","5273","hbrc-00072",8015108,"hawkes bay","hbrc","upland","Forest",-39.1000450920574,176.702160190694,"03-Jul-2020","mohaka river","Forest",516,"Upland"
"Mohaka River U/S Taharua","754","hbrc-00062",8013661,"hawkes bay","hbrc","upland","Forest",-39.0792486294686,176.286569044759,"03-Jul-2020","mohaka river","Forest",657,"Upland"
"Mokomokonui Stream U/S Waipunga","757","hbrc-00026",8013017,"hawkes bay","hbrc","upland","Forest",-39.0480180881699,176.589039609105,"03-Jul-2020","mohaka river","Forest",582,"Upland"
